{
  "version": 0.6,
  "generator": "Overpass API",
  "osm3s": {
    "timestamp_osm_base": "2017-02-23T22:36:02Z",
    "copyright": "The data included in this document is from www.openstreetmap.org. The data is made available under ODbL."
  },
  "elements": [

{
  "type": "node",
  "id": 16878917,
  "lat": 59.2870600,
  "lon": 17.8918361,
  "tags": {
    "name": "Sätra strandbad",
    "natural": "beach",
    "source": "PGS"
  }
},
{
  "type": "node",
  "id": 21450714,
  "lat": 60.4737451,
  "lon": 25.7812485,
  "tags": {
    "created_by": "JOSM",
    "natural": "beach",
    "sport": "swimming"
  }
},
{
  "type": "node",
  "id": 23608453,
  "lat": 59.8682394,
  "lon": 10.6549293,
  "tags": {
    "name": "Hornstranda",
    "natural": "beach",
    "sport": "swimming",
    "wheelchair": "no"
  }
},
{
  "type": "node",
  "id": 24552122,
  "lat": 62.9894639,
  "lon": 8.6179283,
  "tags": {
    "name": "Kalkstranda",
    "natural": "beach",
    "sport": "swimming"
  }
},
{
  "type": "node",
  "id": 24988645,
  "lat": 53.9246092,
  "lon": 13.9338453,
  "tags": {
    "name": "Badestelle Krienke",
    "natural": "beach"
  }
},
{
  "type": "node",
  "id": 29208311,
  "lat": 52.8963030,
  "lon": -4.3529775,
  "tags": {
    "created_by": "POI Editor",
    "name": "Morfa Abererch",
    "natural": "beach",
    "source": "npe"
  }
},
{
  "type": "node",
  "id": 29271135,
  "lat": 52.0271782,
  "lon": -4.8410148,
  "tags": {
    "created_by": "Potlatch 0.4a",
    "name": "Newport Sands",
    "natural": "beach",
    "source": "npe"
  }
},
{
  "type": "node",
  "id": 29761870,
  "lat": 52.8807688,
  "lon": -4.1441875,
  "tags": {
    "created_by": "POI Editor",
    "name": "Morfa Harlech",
    "natural": "beach",
    "source": "npe"
  }
},
{
  "type": "node",
  "id": 31579935,
  "lat": 60.4844865,
  "lon": 24.6712333,
  "tags": {
    "natural": "beach"
  }
},
{
  "type": "node",
  "id": 31822424,
  "lat": 53.0065407,
  "lon": -6.3470087,
  "tags": {
    "natural": "beach"
  }
},
{
  "type": "node",
  "id": 36691214,
  "lat": 61.0705522,
  "lon": 21.8336601,
  "tags": {
    "name": "Kauklaisten uimaranta",
    "natural": "beach"
  }
},
{
  "type": "node",
  "id": 64349460,
  "lat": 23.5126435,
  "lon": 119.5930026,
  "tags": {
    "name": "山水沙灘",
    "name:en": "Shanshui Beach",
    "natural": "beach"
  }
},
{
  "type": "node",
  "id": 80029566,
  "lat": 29.3060929,
  "lon": -94.7679897,
  "tags": {
    "created_by": "JOSM",
    "leisure": "park",
    "name": "Stewart Beach Park",
    "natural": "beach"
  }
},
{
  "type": "node",
  "id": 88286115,
  "lat": 62.8653153,
  "lon": 21.2441935,
  "tags": {
    "natural": "beach"
  }
},
{
  "type": "node",
  "id": 126097105,
  "lat": 44.0503317,
  "lon": 28.6077995,
  "tags": {
    "name": "Băile Reci",
    "natural": "beach"
  }
},
{
  "type": "node",
  "id": 156270985,
  "lat": 36.0487838,
  "lon": 14.3166335,
  "tags": {
    "name": "Daħlet Qorrot",
    "natural": "beach",
    "place": "hamlet"
  }
},
{
  "type": "node",
  "id": 163693969,
  "lat": 62.2872919,
  "lon": 25.7317453,
  "tags": {
    "natural": "beach"
  }
},
{
  "type": "node",
  "id": 172674235,
  "lat": -41.3297903,
  "lon": 174.8354208,
  "tags": {
    "created_by": "Potlatch 0.5d",
    "natural": "beach",
    "source": "knowledge"
  }
},
{
  "type": "node",
  "id": 172922500,
  "lat": -37.6010281,
  "lon": 149.7282765,
  "tags": {
    "name": "Quarry Beach",
    "natural": "beach"
  }
},
{
  "type": "node",
  "id": 173277232,
  "lat": 56.3394591,
  "lon": 29.2648750,
  "tags": {
    "natural": "beach"
  }
},
{
  "type": "node",
  "id": 186805655,
  "lat": 47.4253655,
  "lon": 8.7533663,
  "tags": {
    "natural": "beach",
    "sport": "swimming"
  }
},
{
  "type": "node",
  "id": 194461808,
  "lat": 54.8073112,
  "lon": -1.3154986,
  "tags": {
    "name": "Hawthorn Hive",
    "natural": "beach"
  }
},
{
  "type": "node",
  "id": 194461814,
  "lat": 54.8006126,
  "lon": -1.3134261,
  "tags": {
    "created_by": "JOSM",
    "name": "Shippersea Bay",
    "natural": "beach"
  }
},
{
  "type": "node",
  "id": 201300149,
  "lat": 36.5789395,
  "lon": 52.0125687,
  "tags": {
    "name": "مجتمع ساحلی شهرداری نور",
    "natural": "beach"
  }
},
{
  "type": "node",
  "id": 210685144,
  "lat": 59.4842833,
  "lon": 10.6880617,
  "tags": {
    "created_by": "Potlatch 0.6a",
    "name": "Kulpe",
    "natural": "beach"
  }
},
{
  "type": "node",
  "id": 211016851,
  "lat": 59.4393714,
  "lon": 10.6070460,
  "tags": {
    "created_by": "Potlatch 0.6a",
    "name": "Tronvikstranden",
    "natural": "beach"
  }
},
{
  "type": "node",
  "id": 211283204,
  "lat": 59.4291079,
  "lon": 10.6456264,
  "tags": {
    "name": "fiske",
    "natural": "beach"
  }
},
{
  "type": "node",
  "id": 211283796,
  "lat": 59.4262179,
  "lon": 10.6387857,
  "tags": {
    "created_by": "Merkaartor 0.13",
    "name": "Vårlistranda",
    "natural": "beach"
  }
},
{
  "type": "node",
  "id": 212917843,
  "lat": 59.4141080,
  "lon": 10.6557283,
  "tags": {
    "created_by": "Potlatch 0.6a",
    "name": "Feste",
    "natural": "beach",
    "wheelchair": "no"
  }
},
{
  "type": "node",
  "id": 233437166,
  "lat": -34.4416179,
  "lon": 115.6120231,
  "tags": {
    "created_by": "JOSM",
    "name": "Jasper Beach",
    "natural": "beach"
  }
},
{
  "type": "node",
  "id": 239634763,
  "lat": 62.5222900,
  "lon": 25.5994738,
  "tags": {
    "natural": "beach",
    "source": "gps;survey"
  }
},
{
  "type": "node",
  "id": 239912507,
  "lat": -3.5747732,
  "lon": 143.6902795,
  "tags": {
    "name": "No Wave Beach",
    "natural": "beach"
  }
},
{
  "type": "node",
  "id": 240451497,
  "lat": -35.0299790,
  "lon": 117.0120180,
  "tags": {
    "created_by": "JOSM",
    "name": "Little Quarram Beach",
    "natural": "beach"
  }
},
{
  "type": "node",
  "id": 242070504,
  "lat": -22.6722787,
  "lon": 167.4972322,
  "tags": {
    "name": "Baie de Vao",
    "name:de": "Vao-Bucht",
    "name:en": "Vao Beach",
    "natural": "beach",
    "tourism": "attraction"
  }
},
{
  "type": "node",
  "id": 243645302,
  "lat": -34.8521811,
  "lon": 118.3974080,
  "tags": {
    "created_by": "JOSM",
    "name": "Hassell Beach",
    "natural": "beach"
  }
},
{
  "type": "node",
  "id": 243645336,
  "lat": -34.7862833,
  "lon": 118.4223888,
  "tags": {
    "created_by": "JOSM",
    "name": "Cheyne Beach",
    "natural": "beach"
  }
},
{
  "type": "node",
  "id": 249411974,
  "lat": 0.3000000,
  "lon": -90.5166670,
  "tags": {
    "gns_classification": "BCH",
    "gns_uni": "-1377428",
    "is_in:country": "Ecuador",
    "is_in:country_code": "EC",
    "is_in:state": "Provincia de Galápagos",
    "name": "Playa Negra",
    "natural": "beach",
    "source": "GNS"
  }
},
{
  "type": "node",
  "id": 249712963,
  "lat": 60.6701531,
  "lon": 29.9373886,
  "tags": {
    "natural": "beach"
  }
},
{
  "type": "node",
  "id": 249712965,
  "lat": 60.6714706,
  "lon": 29.9428114,
  "tags": {
    "natural": "beach"
  }
},
{
  "type": "node",
  "id": 252536542,
  "lat": -33.9121923,
  "lon": 122.4074688,
  "tags": {
    "created_by": "JOSM",
    "name": "Dunns Beach",
    "natural": "beach"
  }
},
{
  "type": "node",
  "id": 252538304,
  "lat": -33.8906670,
  "lon": 122.8977800,
  "tags": {
    "name": "Kennedys Beach",
    "natural": "beach"
  }
},
{
  "type": "node",
  "id": 252541179,
  "lat": -33.8821384,
  "lon": 122.9965371,
  "tags": {
    "name": "Tagon Beach",
    "natural": "beach"
  }
},
{
  "type": "node",
  "id": 253459553,
  "lat": 59.1270239,
  "lon": 11.0841008,
  "tags": {
    "name": "Munkebukta",
    "natural": "beach"
  }
},
{
  "type": "node",
  "id": 253461123,
  "lat": -25.5928613,
  "lon": 113.4562024,
  "tags": {
    "created_by": "JOSM",
    "name": "Cattle Well Beach",
    "natural": "beach"
  }
},
{
  "type": "node",
  "id": 253730544,
  "lat": 43.7507211,
  "lon": 28.5771298,
  "tags": {
    "natural": "beach"
  }
},
{
  "type": "node",
  "id": 254019325,
  "lat": 14.9707126,
  "lon": -23.4612582,
  "tags": {
    "name": "Sao Francisco",
    "natural": "beach"
  }
},
{
  "type": "node",
  "id": 254877166,
  "lat": 62.2330000,
  "lon": 29.5757500,
  "tags": {
    "leisure": "pitch",
    "name": "Uimaranta",
    "natural": "beach",
    "sport": "swimming",
    "wheelchair": "no"
  }
},
{
  "type": "node",
  "id": 255020594,
  "lat": 53.9548428,
  "lon": 27.3666968,
  "tags": {
    "natural": "beach"
  }
},
{
  "type": "node",
  "id": 255020617,
  "lat": 53.9564851,
  "lon": 27.3575510,
  "tags": {
    "natural": "beach"
  }
},
{
  "type": "node",
  "id": 255439707,
  "lat": 62.6124310,
  "lon": 29.6951752,
  "tags": {
    "name": "Aavaranta",
    "natural": "beach"
  }
},
{
  "type": "node",
  "id": 255440071,
  "lat": 62.6069571,
  "lon": 29.8080393,
  "tags": {
    "name": "Karsikon uimaranta",
    "natural": "beach",
    "sport": "swimming"
  }
},
{
  "type": "node",
  "id": 255653495,
  "lat": 8.6322830,
  "lon": 98.2429421,
  "tags": {
    "created_by": "Potlatch 0.8a",
    "is_in": "Thailand, Phang Nga, Khao Lak",
    "name": "Sunset Beach",
    "natural": "beach",
    "tourism": "attraction"
  }
},
{
  "type": "node",
  "id": 255653586,
  "lat": 8.7357521,
  "lon": 98.2382554,
  "tags": {
    "is_in": "Thailand, Phang Nga, Khao Lak",
    "name": "Pakweeb Beach",
    "natural": "beach",
    "tourism": "attraction"
  }
},
{
  "type": "node",
  "id": 255653622,
  "lat": 8.7661656,
  "lon": 98.2596361,
  "tags": {
    "created_by": "Potlatch 0.8a",
    "is_in": "Thailand, Phang Nga, Khao Lak",
    "name": "Bangsak Beach",
    "natural": "beach",
    "tourism": "attraction"
  }
},
{
  "type": "node",
  "id": 255655715,
  "lat": 8.6114327,
  "lon": 98.2371313,
  "tags": {
    "created_by": "Potlatch 0.8a",
    "is_in": "Thailand, Phang Nga, Khao Lak",
    "name": "Khao Lak South Beach",
    "natural": "beach",
    "tourism": "attraction"
  }
},
{
  "type": "node",
  "id": 256172891,
  "lat": 64.1277219,
  "lon": 28.3810632,
  "tags": {
    "created_by": "Potlatch 0.8a",
    "name": "Hiukka",
    "natural": "beach",
    "source": "local knowledge",
    "sport": "swimming"
  }
},
{
  "type": "node",
  "id": 259874173,
  "lat": 40.7953174,
  "lon": 9.6718056,
  "tags": {
    "created_by": "Potlatch 0.8b",
    "is_in": "San Teodoro",
    "name": "La Cinta",
    "natural": "beach",
    "tourism": "attraction"
  }
},
{
  "type": "node",
  "id": 261656351,
  "lat": 61.0092061,
  "lon": 14.5246498,
  "tags": {
    "created_by": "Potlatch 0.8c",
    "name": "Skeppshusviken",
    "natural": "beach"
  }
},
{
  "type": "node",
  "id": 261703190,
  "lat": 26.5449011,
  "lon": 54.0236606,
  "tags": {
    "name": "اسکله قدیم",
    "natural": "beach"
  }
},
{
  "type": "node",
  "id": 262748122,
  "lat": 61.7760275,
  "lon": 28.0478480,
  "tags": {
    "addr:city": "Lauteala",
    "addr:country": "FI",
    "addr:postcode": "51980",
    "addr:street": "Kärkkälänniementie",
    "is_in": "Lauteala, Juva, Finland",
    "name": "Kärkkälänniemi",
    "name:fi": "Kärkkälänniemi",
    "natural": "beach"
  }
},
{
  "type": "node",
  "id": 263718366,
  "lat": 28.2130932,
  "lon": -16.8379354,
  "tags": {
    "created_by": "Potlatch 0.9",
    "is_in": "Guia de Isora",
    "name": "Punta Blanca",
    "natural": "beach"
  }
},
{
  "type": "node",
  "id": 264393042,
  "lat": 10.9744937,
  "lon": -64.4036424,
  "tags": {
    "created_by": "JOSM",
    "name": "Punta Arenas",
    "natural": "beach"
  }
},
{
  "type": "node",
  "id": 264484608,
  "lat": 52.1873505,
  "lon": 13.8826572,
  "tags": {
    "natural": "beach",
    "sport": "swimming"
  }
},
{
  "type": "node",
  "id": 267280489,
  "lat": 47.8900483,
  "lon": -124.6268240,
  "tags": {
    "created_by": "Potlatch 0.9b",
    "name": "Second Beach",
    "natural": "beach"
  }
},
{
  "type": "node",
  "id": 268603507,
  "lat": 37.1440586,
  "lon": 26.8598566,
  "tags": {
    "created_by": "JOSM",
    "name": "Vromolithos Beach",
    "natural": "beach"
  }
},
{
  "type": "node",
  "id": 268897397,
  "lat": -46.4793945,
  "lon": 169.7242952,
  "tags": {
    "created_by": "Potlatch 0.9c",
    "description": "Sealion Breeding Grounds",
    "leisure": "nature_reserve",
    "natural": "beach",
    "tourism": "viewpoint"
  }
},
{
  "type": "node",
  "id": 269102559,
  "lat": 60.4637648,
  "lon": 25.0812816,
  "tags": {
    "access": "yes",
    "addr:housenumber": "10",
    "addr:street": "Tervanokantie",
    "description": "Valvottu osan kesästä. Suljettu portilla aukioloaikojen ulkopuolella. Pukukopit",
    "name": "Tervanokan uimaranta",
    "natural": "beach",
    "sport": "swimming",
    "surface": "sand"
  }
},
{
  "type": "node",
  "id": 269384051,
  "lat": 2.7885678,
  "lon": 101.4118314,
  "tags": {
    "name": "Pantai Kelanang",
    "natural": "beach",
    "tourism": "picnic_site"
  }
},
{
  "type": "node",
  "id": 270934739,
  "lat": 42.6089765,
  "lon": 8.8534751,
  "tags": {
    "natural": "beach",
    "surface": "gravel"
  }
},
{
  "type": "node",
  "id": 271320887,
  "lat": 42.6274737,
  "lon": 8.8908406,
  "tags": {
    "natural": "beach",
    "surface": "sand"
  }
},
{
  "type": "node",
  "id": 273148242,
  "lat": 54.5043855,
  "lon": 9.7102933,
  "tags": {
    "created_by": "Potlatch 0.9c",
    "natural": "beach",
    "tourism": "viewpoint"
  }
},
{
  "type": "node",
  "id": 274085790,
  "lat": 58.2476099,
  "lon": 15.6608867,
  "tags": {
    "natural": "beach"
  }
},
{
  "type": "node",
  "id": 274088439,
  "lat": 58.1922216,
  "lon": 15.6494442,
  "tags": {
    "created_by": "JOSM",
    "natural": "beach"
  }
},
{
  "type": "node",
  "id": 274579705,
  "lat": 53.1061355,
  "lon": 13.0436162,
  "tags": {
    "name": "Strand",
    "natural": "beach"
  }
},
{
  "type": "node",
  "id": 275755047,
  "lat": 38.6393066,
  "lon": 20.6957519,
  "tags": {
    "int_name": "Mikrós Ghialós",
    "name": "Μικρός Γιαλός",
    "name:de": "Mikros Gialos",
    "natural": "beach"
  }
},
{
  "type": "node",
  "id": 276967336,
  "lat": 35.4099241,
  "lon": 27.1527301,
  "tags": {
    "created_by": "JOSM",
    "name": "Diakofti",
    "natural": "beach"
  }
},
{
  "type": "node",
  "id": 276967337,
  "lat": 35.4105142,
  "lon": 27.1543263,
  "tags": {
    "name": "Diakofti",
    "natural": "beach"
  }
},
{
  "type": "node",
  "id": 277408303,
  "lat": 35.4653836,
  "lon": 27.1870994,
  "tags": {
    "name": "Fokia",
    "natural": "beach"
  }
},
{
  "type": "node",
  "id": 277410012,
  "lat": 35.4746728,
  "lon": 27.1959562,
  "tags": {
    "name": "Amopi",
    "natural": "beach"
  }
},
{
  "type": "node",
  "id": 277410013,
  "lat": 35.4726337,
  "lon": 27.1939552,
  "tags": {
    "name": "Amopi",
    "natural": "beach"
  }
},
{
  "type": "node",
  "id": 277410957,
  "lat": 35.4537062,
  "lon": 27.1667737,
  "tags": {
    "natural": "beach"
  }
},
{
  "type": "node",
  "id": 277410993,
  "lat": 35.4487561,
  "lon": 27.1617670,
  "tags": {
    "natural": "beach"
  }
},
{
  "type": "node",
  "id": 277418322,
  "lat": 35.4457720,
  "lon": 27.0829953,
  "tags": {
    "name": "Diakoftis",
    "natural": "beach"
  }
},
{
  "type": "node",
  "id": 278153836,
  "lat": 59.3102002,
  "lon": 10.6836711,
  "tags": {
    "created_by": "Potlatch 0.9c",
    "natural": "beach",
    "wheelchair": "limited"
  }
},
{
  "type": "node",
  "id": 278508478,
  "lat": 35.5626986,
  "lon": 23.7780513,
  "tags": {
    "natural": "beach"
  }
},
{
  "type": "node",
  "id": 278535364,
  "lat": 61.2029743,
  "lon": 29.7078649,
  "tags": {
    "natural": "beach",
    "source": "survey"
  }
},
{
  "type": "node",
  "id": 278792701,
  "lat": 52.4366899,
  "lon": 13.0617315,
  "tags": {
    "natural": "beach"
  }
},
{
  "type": "node",
  "id": 279398926,
  "lat": 38.7377933,
  "lon": 1.4444240,
  "tags": {
    "name": "Playa Llevante",
    "natural": "beach"
  }
},
{
  "type": "node",
  "id": 280131780,
  "lat": 62.3922016,
  "lon": 21.2388322,
  "tags": {
    "created_by": "Potlatch 0.10",
    "name": "Mariestranden",
    "natural": "beach"
  }
},
{
  "type": "node",
  "id": 280174346,
  "lat": 27.9072609,
  "lon": 34.3274646,
  "tags": {
    "name": "Wind Beach",
    "natural": "beach",
    "source": "photo"
  }
},
{
  "type": "node",
  "id": 280860282,
  "lat": 52.1067877,
  "lon": 15.8318722,
  "tags": {
    "natural": "beach"
  }
},
{
  "type": "node",
  "id": 280961222,
  "lat": -10.1179842,
  "lon": 123.4420987,
  "tags": {
    "name": "Pantai Oeasa",
    "natural": "beach",
    "source": "GPS survey",
    "supervised": "no",
    "surface": "sand"
  }
},
{
  "type": "node",
  "id": 280961625,
  "lat": -10.1644685,
  "lon": 123.3886930,
  "tags": {
    "name": "Pantai Otan",
    "natural": "beach",
    "supervised": "no",
    "surface": "sand"
  }
},
{
  "type": "node",
  "id": 280963397,
  "lat": -10.3133308,
  "lon": 123.3389368,
  "tags": {
    "name": "Pantai",
    "natural": "beach"
  }
},
{
  "type": "node",
  "id": 281392493,
  "lat": 50.6240515,
  "lon": -4.7705950,
  "tags": {
    "name": "Tregardock",
    "natural": "beach"
  }
},
{
  "type": "node",
  "id": 281762659,
  "lat": 51.3646600,
  "lon": 8.7204341,
  "tags": {
    "natural": "beach"
  }
},
{
  "type": "node",
  "id": 281762660,
  "lat": 51.3619588,
  "lon": 8.7193861,
  "tags": {
    "natural": "beach"
  }
},
{
  "type": "node",
  "id": 281762662,
  "lat": 51.3637253,
  "lon": 8.7252127,
  "tags": {
    "natural": "beach"
  }
},
{
  "type": "node",
  "id": 281774087,
  "lat": 61.2620743,
  "lon": 14.0555400,
  "tags": {
    "access": "yes",
    "natural": "beach",
    "surface": "sand"
  }
},
{
  "type": "node",
  "id": 281897551,
  "lat": 57.8564082,
  "lon": -5.6317866,
  "tags": {
    "created_by": "JOSM",
    "name": "Salmon Beach",
    "natural": "beach"
  }
},
{
  "type": "node",
  "id": 282173424,
  "lat": 46.1825528,
  "lon": 13.7181309,
  "tags": {
    "natural": "beach"
  }
},
{
  "type": "node",
  "id": 282565836,
  "lat": 54.9519014,
  "lon": 26.7541577,
  "tags": {
    "natural": "beach"
  }
},
{
  "type": "node",
  "id": 283288652,
  "lat": 57.9023101,
  "lon": -5.5591808,
  "tags": {
    "name": "Mellon Udrigle Beach",
    "natural": "beach"
  }
},
{
  "type": "node",
  "id": 283682541,
  "lat": 61.0369552,
  "lon": 14.5286798,
  "tags": {
    "created_by": "Potlatch 0.10b",
    "natural": "beach"
  }
},
{
  "type": "node",
  "id": 287134792,
  "lat": 54.4418340,
  "lon": 12.7356511,
  "tags": {
    "name": "FKK",
    "natural": "beach",
    "nudism": "designated"
  }
},
{
  "type": "node",
  "id": 287134919,
  "lat": 54.4418081,
  "lon": 12.7303683,
  "tags": {
    "dog": "no",
    "name": "FKK",
    "natural": "beach",
    "nudism": "designated"
  }
},
{
  "type": "node",
  "id": 287521043,
  "lat": 57.6177790,
  "lon": 11.9227384,
  "tags": {
    "name": "Hovåsbadet",
    "natural": "beach"
  }
},
{
  "type": "node",
  "id": 287586756,
  "lat": 34.9842190,
  "lon": 34.0084404,
  "tags": {
    "name": "sandy beach",
    "natural": "beach"
  }
},
{
  "type": "node",
  "id": 288804703,
  "lat": 59.7670904,
  "lon": 18.8779071,
  "tags": {
    "natural": "beach",
    "surface": "sand"
  }
},
{
  "type": "node",
  "id": 288939434,
  "lat": 56.5232449,
  "lon": 12.9445160,
  "tags": {
    "name": "Nudist beach",
    "natural": "beach"
  }
},
{
  "type": "node",
  "id": 289607849,
  "lat": 11.2527640,
  "lon": 75.7705800,
  "tags": {
    "name": "Calicut Beach",
    "natural": "beach"
  }
},
{
  "type": "node",
  "id": 289889471,
  "lat": 54.4424578,
  "lon": 12.6605924,
  "tags": {
    "natural": "beach"
  }
},
{
  "type": "node",
  "id": 290359074,
  "lat": 39.6105115,
  "lon": 19.7777986,
  "tags": {
    "natural": "beach"
  }
},
{
  "type": "node",
  "id": 290390648,
  "lat": 36.9635158,
  "lon": 15.2224761,
  "tags": {
    "created_by": "Potlatch 0.10b",
    "natural": "beach"
  }
},
{
  "type": "node",
  "id": 291538796,
  "lat": 51.4954643,
  "lon": 14.0444821,
  "tags": {
    "natural": "beach",
    "wheelchair": "yes"
  }
},
{
  "type": "node",
  "id": 293181913,
  "lat": 44.7623592,
  "lon": 14.7021954,
  "tags": {
    "name": "Kristofor",
    "natural": "beach"
  }
},
{
  "type": "node",
  "id": 293185953,
  "lat": 44.7075442,
  "lon": 14.8317539,
  "tags": {
    "name": "Pudarica",
    "natural": "beach",
    "wheelchair": "limited"
  }
},
{
  "type": "node",
  "id": 293400190,
  "lat": 59.8686083,
  "lon": 10.6624249,
  "tags": {
    "natural": "beach",
    "sport": "swimming"
  }
},
{
  "type": "node",
  "id": 293400195,
  "lat": 59.8623072,
  "lon": 10.6718202,
  "tags": {
    "natural": "beach",
    "sport": "swimming"
  }
},
{
  "type": "node",
  "id": 293400197,
  "lat": 59.8513408,
  "lon": 10.6872839,
  "tags": {
    "name": "Hellviktangen",
    "natural": "beach",
    "sport": "swimming"
  }
},
{
  "type": "node",
  "id": 293400220,
  "lat": 59.8706074,
  "lon": 10.6596563,
  "tags": {
    "access": "yes",
    "name": "Badeodden",
    "natural": "beach",
    "sport": "swimming",
    "surface": "rocky"
  }
},
{
  "type": "node",
  "id": 293615781,
  "lat": 44.5752821,
  "lon": 14.3762404,
  "tags": {
    "name": "Liska slatina",
    "natural": "beach",
    "wheelchair": "limited"
  }
},
{
  "type": "node",
  "id": 293952271,
  "lat": 44.5055708,
  "lon": 14.3154576,
  "tags": {
    "name": "Uvala Tijesni",
    "natural": "beach"
  }
},
{
  "type": "node",
  "id": 293986392,
  "lat": 60.2587736,
  "lon": 24.7607100,
  "tags": {
    "name": "Jupperinranta",
    "natural": "beach"
  }
},
{
  "type": "node",
  "id": 294232871,
  "lat": 12.2601769,
  "lon": -69.1197936,
  "tags": {
    "addr:country": "CW",
    "name": "Playa Hundu",
    "natural": "beach"
  }
},
{
  "type": "node",
  "id": 295035448,
  "lat": 61.5027334,
  "lon": 23.9918379,
  "tags": {
    "name": "Halimajärven uimaranta",
    "natural": "beach",
    "sport": "swimming"
  }
},
{
  "type": "node",
  "id": 295330869,
  "lat": 12.3881444,
  "lon": -69.1567399,
  "tags": {
    "addr:city": "Westpunt",
    "addr:country": "CW",
    "name": "Playa Gipy",
    "natural": "beach",
    "surface": "sand",
    "wheelchair": "no",
    "wikipedia": "nl:Playa Gipy"
  }
},
{
  "type": "node",
  "id": 296979976,
  "lat": 24.8233470,
  "lon": 66.9362757,
  "tags": {
    "created_by": "Potlatch 0.10b",
    "name": "Sandspit",
    "natural": "beach"
  }
},
{
  "type": "node",
  "id": 299290701,
  "lat": 35.3340385,
  "lon": 33.4449824,
  "tags": {
    "name": "Halk Plaji",
    "name:en": "Lara Beach",
    "natural": "beach"
  }
},
{
  "type": "node",
  "id": 299357509,
  "lat": 43.0894299,
  "lon": 6.3588826,
  "tags": {
    "created_by": "JOSM",
    "name": "Plage du Cap Blanc",
    "natural": "beach"
  }
},
{
  "type": "node",
  "id": 299357567,
  "lat": 43.1044762,
  "lon": 6.3605885,
  "tags": {
    "created_by": "JOSM",
    "natural": "beach"
  }
},
{
  "type": "node",
  "id": 299358173,
  "lat": 43.1084493,
  "lon": 6.3585362,
  "tags": {
    "name": "Plage du Gaou",
    "natural": "beach"
  }
},
{
  "type": "node",
  "id": 299560040,
  "lat": 11.2903208,
  "lon": -60.6706500,
  "tags": {
    "created_by": "Potlatch 0.10b",
    "name": "Englishman's Bay",
    "natural": "beach",
    "tourism": "attraction",
    "wikidata": "Q5378702"
  }
},
{
  "type": "node",
  "id": 299675183,
  "lat": 37.6402636,
  "lon": 23.1588288,
  "tags": {
    "name": "Vagionia",
    "natural": "beach"
  }
},
{
  "type": "node",
  "id": 301234456,
  "lat": 28.4192916,
  "lon": -16.5171793,
  "tags": {
    "name": "Playa del Pozo",
    "natural": "beach"
  }
},
{
  "type": "node",
  "id": 303187431,
  "lat": -33.9875306,
  "lon": 18.3504657,
  "tags": {
    "fixme": "Draw area of Oude Kraal Beach",
    "name": "Oude Kraal",
    "natural": "beach",
    "tourism": "picnic_site"
  }
},
{
  "type": "node",
  "id": 303382322,
  "lat": 60.7905159,
  "lon": 11.4668824,
  "tags": {
    "name": "Haverbekkvika",
    "natural": "beach"
  }
},
{
  "type": "node",
  "id": 305315309,
  "lat": 59.3871647,
  "lon": 12.8118602,
  "tags": {
    "created_by": "Potlatch 0.10e",
    "natural": "beach"
  }
},
{
  "type": "node",
  "id": 306550921,
  "lat": 45.1506227,
  "lon": 14.5283532,
  "tags": {
    "natural": "beach",
    "nudism": "yes",
    "source": "survey"
  }
},
{
  "type": "node",
  "id": 306550923,
  "lat": 45.1261933,
  "lon": 14.4797888,
  "tags": {
    "natural": "beach"
  }
},
{
  "type": "node",
  "id": 307943346,
  "lat": 59.4352017,
  "lon": 14.4011995,
  "tags": {
    "access": "yes",
    "natural": "beach",
    "surface": "sand"
  }
},
{
  "type": "node",
  "id": 308428748,
  "lat": 60.8547190,
  "lon": 10.9496109,
  "tags": {
    "name": "Fiskerly",
    "natural": "beach"
  }
},
{
  "type": "node",
  "id": 311607402,
  "lat": 45.2495068,
  "lon": -81.6126983,
  "tags": {
    "name": "Little Cove",
    "natural": "beach"
  }
},
{
  "type": "node",
  "id": 311962245,
  "lat": 13.8846170,
  "lon": 121.7519500,
  "tags": {
    "contributor": "waypoints.ph - eppgarcia",
    "name": "Kwebang Lampas",
    "natural": "beach",
    "source:url": "http://waypoints.ph/detail_gen.php?wpt=kweblm"
  }
},
{
  "type": "node",
  "id": 312999730,
  "lat": 8.3983133,
  "lon": 76.9729168,
  "tags": {
    "name": "Samudra Beach",
    "natural": "beach"
  }
},
{
  "type": "node",
  "id": 313863131,
  "lat": 12.2106695,
  "lon": -68.3217112,
  "tags": {
    "name": "1000 Steps",
    "natural": "beach",
    "ref": "16",
    "sport": "scuba_diving"
  }
},
{
  "type": "node",
  "id": 316251753,
  "lat": 53.9129143,
  "lon": 13.8164669,
  "tags": {
    "natural": "beach"
  }
},
{
  "type": "node",
  "id": 318135014,
  "lat": 5.7464527,
  "lon": -53.9457244,
  "tags": {
    "name": "Les Hattes",
    "natural": "beach"
  }
},
{
  "type": "node",
  "id": 318738614,
  "lat": 52.5270364,
  "lon": -4.0513088,
  "tags": {
    "created_by": "Potlatch 0.10f",
    "name": "Ynyslas Beach",
    "natural": "beach",
    "tourism": "attraction"
  }
},
{
  "type": "node",
  "id": 321265697,
  "lat": 36.5029336,
  "lon": -4.9190685,
  "tags": {
    "name": "Playa de Nagüeles",
    "natural": "beach"
  }
},
{
  "type": "node",
  "id": 321265698,
  "lat": 36.5057542,
  "lon": -4.9112743,
  "tags": {
    "name": "Playa de Casablanca",
    "natural": "beach"
  }
},
{
  "type": "node",
  "id": 321316476,
  "lat": 54.1262665,
  "lon": 10.4371548,
  "tags": {
    "natural": "beach"
  }
},
{
  "type": "node",
  "id": 321814885,
  "lat": -36.1854127,
  "lon": 175.3633203,
  "tags": {
    "created_by": "Potlatch 0.10f",
    "name": "Bush's Beach",
    "natural": "beach"
  }
},
{
  "type": "node",
  "id": 322010699,
  "lat": 59.2302091,
  "lon": 18.2798981,
  "tags": {
    "name": "Gimmerstabadet",
    "natural": "beach"
  }
},
{
  "type": "node",
  "id": 322293263,
  "lat": -37.2931060,
  "lon": -12.6467421,
  "tags": {
    "name": "Pig Beach",
    "natural": "beach",
    "place": "locality",
    "source": "landsat;commons:Tristan_Map.png"
  }
},
{
  "type": "node",
  "id": 323812067,
  "lat": 38.9914554,
  "lon": -0.1518113,
  "tags": {
    "created_by": "JOSM",
    "name": "Platja de Venècia",
    "natural": "beach"
  }
},
{
  "type": "node",
  "id": 324384575,
  "lat": 59.4265229,
  "lon": 10.4940800,
  "tags": {
    "name": "Vollane",
    "natural": "beach"
  }
},
{
  "type": "node",
  "id": 325821563,
  "lat": 54.8467357,
  "lon": -3.8433617,
  "tags": {
    "name": "Red Hain",
    "natural": "beach"
  }
},
{
  "type": "node",
  "id": 327101662,
  "lat": 61.0065162,
  "lon": 26.4141848,
  "tags": {
    "access": "yes",
    "addr:housenumber": "15",
    "addr:street": "Hiidensaarenkuja",
    "name": "Hiidensaaren uimaranta",
    "natural": "beach",
    "operator": "Iitin kunta / Tekniset palvelut",
    "surface": "sand"
  }
},
{
  "type": "node",
  "id": 327101670,
  "lat": 61.0047295,
  "lon": 26.4364287,
  "tags": {
    "addr:housenumber": "29",
    "addr:street": "Hiidenpolku",
    "name": "Hiidensaaren rantautumispaikka ja laivalaituri",
    "natural": "beach",
    "operator": "Kymenlaakson virkistysalueyhdistys ry"
  }
},
{
  "type": "node",
  "id": 327533195,
  "lat": 59.3151409,
  "lon": 10.6813689,
  "tags": {
    "created_by": "Potlatch 0.10f",
    "natural": "beach",
    "wheelchair": "no"
  }
},
{
  "type": "node",
  "id": 327533503,
  "lat": 59.3057005,
  "lon": 10.6897803,
  "tags": {
    "created_by": "Potlatch 0.10f",
    "name": "Bj",
    "natural": "beach",
    "wheelchair": "limited"
  }
},
{
  "type": "node",
  "id": 327539022,
  "lat": 59.3463346,
  "lon": 10.6612674,
  "tags": {
    "created_by": "Potlatch 0.10f",
    "natural": "beach",
    "wheelchair": "limited"
  }
},
{
  "type": "node",
  "id": 329582152,
  "lat": 52.4497780,
  "lon": 13.0654404,
  "tags": {
    "natural": "beach",
    "wheelchair": "limited"
  }
},
{
  "type": "node",
  "id": 330460072,
  "lat": -39.2702016,
  "lon": -71.9764852,
  "tags": {
    "name": "Playa Grande",
    "natural": "beach",
    "tourism": "viewpoint"
  }
},
{
  "type": "node",
  "id": 331364394,
  "lat": 60.1858639,
  "lon": 23.9690759,
  "tags": {
    "name": "Lasitehtaan ranta",
    "natural": "beach"
  }
},
{
  "type": "node",
  "id": 331474505,
  "lat": 40.3694701,
  "lon": -4.3161568,
  "tags": {
    "natural": "beach"
  }
},
{
  "type": "node",
  "id": 332179105,
  "lat": 36.7305627,
  "lon": -3.9713859,
  "tags": {
    "name": "Playa de Ferrara",
    "natural": "beach"
  }
},
{
  "type": "node",
  "id": 332179122,
  "lat": 36.7273141,
  "lon": -3.9545097,
  "tags": {
    "name": "Playa los Cuartos",
    "natural": "beach"
  }
},
{
  "type": "node",
  "id": 332179132,
  "lat": 36.7314999,
  "lon": -3.9759459,
  "tags": {
    "name": "Playa de las Lindes",
    "natural": "beach"
  }
},
{
  "type": "node",
  "id": 332179318,
  "lat": 36.7335823,
  "lon": -3.9822469,
  "tags": {
    "name": "Playa del Cenicero",
    "natural": "beach"
  }
},
{
  "type": "node",
  "id": 332232705,
  "lat": 5.3579909,
  "lon": -53.0040399,
  "tags": {
    "name": "Crique Toussaint",
    "natural": "beach"
  }
},
{
  "type": "node",
  "id": 333753593,
  "lat": 50.3620607,
  "lon": -3.5195213,
  "tags": {
    "created_by": "Potlatch 0.10f",
    "name": "Long Sands",
    "natural": "beach",
    "source": "NPE"
  }
},
{
  "type": "node",
  "id": 338484995,
  "lat": 56.2846996,
  "lon": 15.7250693,
  "tags": {
    "natural": "beach"
  }
},
{
  "type": "node",
  "id": 338993491,
  "lat": 51.8580252,
  "lon": -8.2370869,
  "tags": {
    "created_by": "Potlatch 0.10f",
    "name": "Glenmore Strand",
    "natural": "beach"
  }
},
{
  "type": "node",
  "id": 338993722,
  "lat": 51.8583433,
  "lon": -8.2297140,
  "tags": {
    "created_by": "Potlatch 0.10f",
    "name": "Ballybrassil Beach",
    "natural": "beach"
  }
},
{
  "type": "node",
  "id": 340011094,
  "lat": -31.8754004,
  "lon": -58.2080009,
  "tags": {
    "name": "Playa",
    "natural": "beach"
  }
},
{
  "type": "node",
  "id": 342117959,
  "lat": 15.8354200,
  "lon": 73.6331200,
  "tags": {
    "name": "VENGURLA BEACH/SAGRESHWAR/UBHDANDA",
    "natural": "beach"
  }
},
{
  "type": "node",
  "id": 342117973,
  "lat": 15.7983400,
  "lon": 73.6523500,
  "tags": {
    "name": "Mochemad Beach",
    "natural": "beach",
    "place": "suburb"
  }
},
{
  "type": "node",
  "id": 342117978,
  "lat": 15.7873500,
  "lon": 73.6550251,
  "tags": {
    "name": "ARAVALI BEACH",
    "natural": "beach"
  }
},
{
  "type": "node",
  "id": 342119450,
  "lat": 15.9191900,
  "lon": 73.5658300,
  "tags": {
    "name": "KHAVANE BEACH",
    "natural": "beach"
  }
},
{
  "type": "node",
  "id": 342119648,
  "lat": 16.1784340,
  "lon": 73.4419682,
  "tags": {
    "name": "ACHRA BEACH",
    "natural": "beach"
  }
},
{
  "type": "node",
  "id": 342119710,
  "lat": 15.9494000,
  "lon": 73.5053999,
  "tags": {
    "name": "Bhogave/Kolwel Beach",
    "natural": "beach"
  }
},
{
  "type": "node",
  "id": 342119723,
  "lat": 16.0775066,
  "lon": 73.4645356,
  "tags": {
    "name": "KOLAMB BEACH, MALVAN",
    "natural": "beach"
  }
},
{
  "type": "node",
  "id": 342119730,
  "lat": 16.0647600,
  "lon": 73.4628299,
  "tags": {
    "name": "Chiwla Beach",
    "natural": "beach"
  }
},
{
  "type": "node",
  "id": 342119753,
  "lat": 16.0276801,
  "lon": 73.4847999,
  "tags": {
    "name": "be",
    "natural": "beach"
  }
},
{
  "type": "node",
  "id": 342119805,
  "lat": 16.1004600,
  "lon": 73.4600900,
  "tags": {
    "name": "TALASHIL BEACH",
    "natural": "beach"
  }
},
{
  "type": "node",
  "id": 342121424,
  "lat": 16.4369200,
  "lon": 73.3570900,
  "tags": {
    "name": "PHANSE BEACH",
    "natural": "beach"
  }
},
{
  "type": "node",
  "id": 342121434,
  "lat": 16.4122000,
  "lon": 73.3653300,
  "tags": {
    "name": "PADAVANE BEACH",
    "natural": "beach"
  }
},
{
  "type": "node",
  "id": 342121444,
  "lat": 16.6882300,
  "lon": 73.3296200,
  "tags": {
    "name": "VAITHAY BEACH",
    "natural": "beach"
  }
},
{
  "type": "node",
  "id": 342121452,
  "lat": 16.6387900,
  "lon": 73.3364900,
  "tags": {
    "name": "BCH NEAR AMBOLGAD",
    "natural": "beach"
  }
},
{
  "type": "node",
  "id": 342121461,
  "lat": 16.4767500,
  "lon": 73.3419800,
  "tags": {
    "name": "SURUCHI BEACH",
    "natural": "beach"
  }
},
{
  "type": "node",
  "id": 342121470,
  "lat": 16.6154500,
  "lon": 73.3516000,
  "tags": {
    "name": "JAITAPUR AND KUVESHI BEACH",
    "natural": "beach"
  }
},
{
  "type": "node",
  "id": 342121477,
  "lat": 16.5152000,
  "lon": 73.3241300,
  "tags": {
    "name": "GIRYE MINI BEACH",
    "natural": "beach"
  }
},
{
  "type": "node",
  "id": 342121485,
  "lat": 16.5303000,
  "lon": 73.3172600,
  "tags": {
    "name": "Beach Near Vijaydurg",
    "natural": "beach"
  }
},
{
  "type": "node",
  "id": 342121493,
  "lat": 16.5409130,
  "lon": 73.3131872,
  "tags": {
    "name": "Beach Near Vijaydurg",
    "natural": "beach"
  }
},
{
  "type": "node",
  "id": 342121516,
  "lat": 16.3201900,
  "lon": 73.3969100,
  "tags": {
    "name": "KATWAN BEACH",
    "natural": "beach"
  }
},
{
  "type": "node",
  "id": 342121532,
  "lat": 16.8268175,
  "lon": 73.2933597,
  "tags": {
    "name": "BEACH",
    "natural": "beach"
  }
},
{
  "type": "node",
  "id": 342121550,
  "lat": 16.8008400,
  "lon": 73.3158900,
  "tags": {
    "name": "GAVKHADI BEACH",
    "natural": "beach"
  }
},
{
  "type": "node",
  "id": 342121561,
  "lat": 16.8956000,
  "lon": 73.2980400,
  "tags": {
    "name": "Ranpar Beach",
    "natural": "beach"
  }
},
{
  "type": "node",
  "id": 342121604,
  "lat": 16.2268100,
  "lon": 73.4243800,
  "tags": {
    "name": "Apaiwadi Beach",
    "natural": "beach"
  }
},
{
  "type": "node",
  "id": 342121613,
  "lat": 16.5785112,
  "lon": 73.3429512,
  "tags": {
    "name": "Madban Beach",
    "natural": "beach"
  }
},
{
  "type": "node",
  "id": 342121621,
  "lat": 16.5728800,
  "lon": 73.3447300,
  "tags": {
    "name": "ZANZAVAT BEACH",
    "natural": "beach"
  }
},
{
  "type": "node",
  "id": 342121629,
  "lat": 16.5536500,
  "lon": 73.3227600,
  "tags": {
    "name": "Dhamale Beach",
    "natural": "beach"
  }
},
{
  "type": "node",
  "id": 342121637,
  "lat": 16.5509000,
  "lon": 73.3186400,
  "tags": {
    "name": "Beach Near Vijaydurg",
    "natural": "beach"
  }
},
{
  "type": "node",
  "id": 342121646,
  "lat": 16.3751200,
  "lon": 73.3708200,
  "tags": {
    "name": "DEVGARH BEACH",
    "natural": "beach"
  }
},
{
  "type": "node",
  "id": 342121666,
  "lat": 16.3627600,
  "lon": 73.3763100,
  "tags": {
    "name": "KOHL BEACH",
    "natural": "beach"
  }
},
{
  "type": "node",
  "id": 342121685,
  "lat": 16.3613900,
  "lon": 73.3818100,
  "tags": {
    "name": "TARUMUMBARI BEACH",
    "natural": "beach"
  }
},
{
  "type": "node",
  "id": 342121694,
  "lat": 16.3517800,
  "lon": 73.3900500,
  "tags": {
    "name": "MITH MUMBAREEY BEACH",
    "natural": "beach"
  }
},
{
  "type": "node",
  "id": 342121711,
  "lat": 16.3298000,
  "lon": 73.3941700,
  "tags": {
    "name": "KUNKESHWAR BEACH",
    "natural": "beach"
  }
},
{
  "type": "node",
  "id": 343994926,
  "lat": -21.9282288,
  "lon": 166.4778042,
  "tags": {
    "name": "plage bivouac du confluent",
    "natural": "beach"
  }
},
{
  "type": "node",
  "id": 344181472,
  "lat": 40.4064235,
  "lon": -4.3821234,
  "tags": {
    "natural": "beach"
  }
},
{
  "type": "node",
  "id": 345205311,
  "lat": 60.3620742,
  "lon": 23.0626088,
  "tags": {
    "natural": "beach",
    "sport": "swimming"
  }
},
{
  "type": "node",
  "id": 345349066,
  "lat": 49.9754263,
  "lon": 8.9440809,
  "tags": {
    "access": "private",
    "natural": "beach",
    "note:access": "zumindest an Ostseite deutliche Verbotsschilder",
    "sport": "swimming"
  }
},
{
  "type": "node",
  "id": 348193020,
  "lat": 42.3037362,
  "lon": -72.6065987,
  "tags": {
    "created_by": "Merkaartor 0.12",
    "name": "Rainbow Beach",
    "natural": "beach"
  }
},
{
  "type": "node",
  "id": 353913561,
  "lat": 47.0399314,
  "lon": -88.9256858,
  "tags": {
    "ele": "190",
    "gnis:county_id": "131",
    "gnis:created": "04/14/1980",
    "gnis:feature_id": "619862",
    "gnis:state_id": "26",
    "name": "Agate Beach",
    "natural": "beach"
  }
},
{
  "type": "node",
  "id": 353913572,
  "lat": 47.9151686,
  "lon": -89.2095319,
  "tags": {
    "ele": "189",
    "gnis:county_id": "083",
    "gnis:created": "04/14/1980",
    "gnis:feature_id": "619863",
    "gnis:state_id": "26",
    "name": "Agate Beach",
    "natural": "beach"
  }
},
{
  "type": "node",
  "id": 353914931,
  "lat": 47.8621154,
  "lon": -89.0159212,
  "tags": {
    "ele": "187",
    "gnis:county_id": "083",
    "gnis:created": "04/14/1980",
    "gnis:feature_id": "620310",
    "gnis:state_id": "26",
    "name": "Attwood Beach",
    "natural": "beach"
  }
},
{
  "type": "node",
  "id": 353918019,
  "lat": 47.9046131,
  "lon": -89.0042521,
  "tags": {
    "ele": "186",
    "gnis:county_id": "083",
    "gnis:created": "04/14/1980",
    "gnis:feature_id": "622742",
    "gnis:state_id": "26",
    "name": "Carnelian Beach",
    "natural": "beach"
  }
},
{
  "type": "node",
  "id": 353923063,
  "lat": 44.6580542,
  "lon": -86.1900944,
  "tags": {
    "ele": "184",
    "gnis:county_id": "019",
    "gnis:created": "04/14/1980",
    "gnis:feature_id": "624163",
    "gnis:state_id": "26",
    "name": "Crystal Beach",
    "natural": "beach"
  }
},
{
  "type": "node",
  "id": 353948180,
  "lat": 42.1008734,
  "lon": -86.4925228,
  "tags": {
    "ele": "181",
    "gnis:county_id": "021",
    "gnis:created": "04/14/1980",
    "gnis:feature_id": "630530",
    "gnis:state_id": "26",
    "name": "Lions Beach",
    "natural": "beach"
  }
},
{
  "type": "node",
  "id": 353959514,
  "lat": 44.6372212,
  "lon": -86.1664822,
  "tags": {
    "ele": "185",
    "gnis:county_id": "019",
    "gnis:created": "01/01/2000",
    "gnis:feature_id": "634072",
    "gnis:state_id": "26",
    "name": "Onkeonwe Beach",
    "natural": "beach"
  }
},
{
  "type": "node",
  "id": 353959756,
  "lat": 42.7751028,
  "lon": -86.2110715,
  "tags": {
    "access": "yes",
    "ele": "179",
    "name": "Ottawa Beach",
    "natural": "beach",
    "operator": "Michigan Department of Natural Resources",
    "surface": "sand",
    "toilets:wheelchair": "yes",
    "wheelchair": "yes"
  }
},
{
  "type": "node",
  "id": 353971479,
  "lat": 47.0052108,
  "lon": -88.9629096,
  "tags": {
    "ele": "191",
    "gnis:county_id": "131",
    "gnis:created": "04/14/1980",
    "gnis:feature_id": "637251",
    "gnis:state_id": "26",
    "name": "Santa Monica Beach",
    "natural": "beach"
  }
},
{
  "type": "node",
  "id": 353976654,
  "lat": 46.8249230,
  "lon": -87.7106860,
  "tags": {
    "ele": "185",
    "gnis:county_id": "103",
    "gnis:created": "04/14/1980",
    "gnis:feature_id": "638663",
    "gnis:state_id": "26",
    "name": "Squaw Beach",
    "natural": "beach"
  }
},
{
  "type": "node",
  "id": 353979931,
  "lat": 48.0079407,
  "lon": -88.9717461,
  "tags": {
    "ele": "209",
    "gnis:county_id": "083",
    "gnis:created": "04/14/1980",
    "gnis:edited": "02/05/2007",
    "gnis:feature_id": "1614784",
    "gnis:state_id": "26",
    "name": "Thomsonite Beach",
    "natural": "beach"
  }
},
{
  "type": "node",
  "id": 353981071,
  "lat": 42.7984668,
  "lon": -86.2106649,
  "tags": {
    "access": "yes",
    "ele": "182",
    "gnis:county_id": "139",
    "gnis:created": "04/14/1980",
    "gnis:feature_id": "1615163",
    "gnis:state_id": "26",
    "name": "Tunnel Park",
    "natural": "beach",
    "surface": "sand",
    "wheelchair": "limited"
  }
},
{
  "type": "node",
  "id": 353991932,
  "lat": 46.8593741,
  "lon": -88.3704046,
  "tags": {
    "ele": "184",
    "gnis:county_id": "013",
    "gnis:created": "02/01/1991",
    "gnis:feature_id": "1618237",
    "gnis:state_id": "26",
    "name": "Second Sand Beach",
    "natural": "beach"
  }
},
{
  "type": "node",
  "id": 353991971,
  "lat": 48.0001608,
  "lon": -88.7056328,
  "tags": {
    "ele": "197",
    "gnis:county_id": "083",
    "gnis:created": "04/14/1980",
    "gnis:feature_id": "1618274",
    "gnis:state_id": "26",
    "name": "Greenstone Beach",
    "natural": "beach"
  }
},
{
  "type": "node",
  "id": 353992034,
  "lat": 47.9929392,
  "lon": -88.7309110,
  "tags": {
    "ele": "186",
    "gnis:county_id": "083",
    "gnis:created": "04/14/1980",
    "gnis:feature_id": "1618287",
    "gnis:state_id": "26",
    "name": "Little Greenstone Beach",
    "natural": "beach"
  }
},
{
  "type": "node",
  "id": 353992462,
  "lat": 45.5705678,
  "lon": -84.1358464,
  "tags": {
    "ele": "176",
    "gnis:county_id": "141",
    "gnis:created": "06/01/1992",
    "gnis:feature_id": "1618541",
    "gnis:state_id": "26",
    "name": "Huron Beach",
    "natural": "beach"
  }
},
{
  "type": "node",
  "id": 354000095,
  "lat": 43.9294562,
  "lon": -82.6996559,
  "tags": {
    "ele": "176",
    "gnis:county_id": "063",
    "gnis:created": "01/01/2000",
    "gnis:feature_id": "1623120",
    "gnis:state_id": "26",
    "name": "Rubicon Beach",
    "natural": "beach"
  }
},
{
  "type": "node",
  "id": 354007956,
  "lat": 44.6288895,
  "lon": -86.0968401,
  "tags": {
    "ele": "185",
    "gnis:county_id": "019",
    "gnis:created": "02/26/2002",
    "gnis:feature_id": "1951793",
    "gnis:state_id": "26",
    "name": "Beulah Beach",
    "natural": "beach"
  }
},
{
  "type": "node",
  "id": 354009318,
  "lat": 45.5180556,
  "lon": -84.5569444,
  "tags": {
    "ele": "181",
    "gnis:county_id": "031",
    "gnis:created": "02/08/2007",
    "gnis:feature_id": "2100417",
    "gnis:state_id": "26",
    "name": "Miami Beach",
    "natural": "beach"
  }
},
{
  "type": "node",
  "id": 354009326,
  "lat": 45.5925000,
  "lon": -84.7288889,
  "tags": {
    "ele": "218",
    "gnis:county_id": "031",
    "gnis:created": "02/08/2007",
    "gnis:feature_id": "2100451",
    "gnis:state_id": "26",
    "name": "Silver Strand Beach",
    "natural": "beach"
  }
},
{
  "type": "node",
  "id": 354009353,
  "lat": 45.5022222,
  "lon": -84.2972222,
  "tags": {
    "ele": "187",
    "gnis:county_id": "031",
    "gnis:created": "02/08/2007",
    "gnis:feature_id": "2100390",
    "gnis:state_id": "26",
    "name": "Doriva Beach",
    "natural": "beach"
  }
},
{
  "type": "node",
  "id": 354017597,
  "lat": 48.1316667,
  "lon": -88.6180556,
  "tags": {
    "ele": "207",
    "gnis:county_id": "061",
    "gnis:created": "05/16/2007",
    "gnis:feature_id": "2123798",
    "gnis:state_id": "26",
    "name": "Hancock Beach",
    "natural": "beach"
  }
},
{
  "type": "node",
  "id": 354017773,
  "lat": 46.2602778,
  "lon": -84.4400000,
  "tags": {
    "ele": "234",
    "gnis:county_id": "033",
    "gnis:created": "10/17/2007",
    "gnis:feature_id": "2356308",
    "gnis:state_id": "26",
    "name": "Dukes Lake Beach",
    "natural": "beach"
  }
},
{
  "type": "node",
  "id": 354018699,
  "lat": 46.0066667,
  "lon": -83.5341667,
  "tags": {
    "ele": "180",
    "gnis:county_id": "033",
    "gnis:created": "10/17/2007",
    "gnis:feature_id": "2356321",
    "gnis:state_id": "26",
    "name": "Glen Cove Beach",
    "natural": "beach"
  }
},
{
  "type": "node",
  "id": 354018716,
  "lat": 45.9388889,
  "lon": -83.6019444,
  "tags": {
    "ele": "177",
    "gnis:county_id": "033",
    "gnis:created": "10/17/2007",
    "gnis:feature_id": "2356322",
    "gnis:state_id": "26",
    "name": "Big Shoal Beach",
    "natural": "beach"
  }
},
{
  "type": "node",
  "id": 354035458,
  "lat": 45.5927778,
  "lon": -85.5227778,
  "tags": {
    "ele": "180",
    "gnis:county_id": "029",
    "gnis:created": "12/05/2007",
    "gnis:feature_id": "2364654",
    "gnis:state_id": "26",
    "name": "Beaver Island Public Beach",
    "natural": "beach"
  }
},
{
  "type": "node",
  "id": 354035498,
  "lat": 45.3190332,
  "lon": -85.2646978,
  "tags": {
    "ele": "184",
    "gnis:county_id": "029",
    "gnis:created": "12/14/2007",
    "gnis:feature_id": "2368840",
    "gnis:state_id": "26",
    "name": "Lake Michigan Beach",
    "natural": "beach"
  }
},
{
  "type": "node",
  "id": 354040672,
  "lat": 44.9616532,
  "lon": -85.4846218,
  "tags": {
    "ele": "178",
    "gnis:county_id": "055",
    "gnis:created": "09/25/2008",
    "gnis:feature_id": "2496218",
    "gnis:state_id": "26",
    "name": "Haserot Beach",
    "natural": "beach"
  }
},
{
  "type": "node",
  "id": 354044143,
  "lat": 44.9019444,
  "lon": -85.4147222,
  "tags": {
    "ele": "179",
    "gnis:county_id": "009",
    "gnis:created": "07/08/2008",
    "gnis:feature_id": "2463254",
    "gnis:state_id": "26",
    "name": "North Beach",
    "natural": "beach"
  }
},
{
  "type": "node",
  "id": 354046005,
  "lat": 44.6255556,
  "lon": -86.2430556,
  "tags": {
    "ele": "177",
    "gnis:county_id": "019",
    "gnis:created": "09/16/2008",
    "gnis:feature_id": "2494965",
    "gnis:state_id": "26",
    "name": "Elberta Beach",
    "natural": "beach"
  }
},
{
  "type": "node",
  "id": 354142881,
  "lat": 42.1286326,
  "lon": -90.1781837,
  "tags": {
    "ele": "179",
    "gnis:county_id": "015",
    "gnis:created": "01/15/1980",
    "gnis:feature_id": "418008",
    "gnis:state_id": "17",
    "name": "Santa Fe Beach",
    "natural": "beach"
  }
},
{
  "type": "node",
  "id": 354221814,
  "lat": 42.1827107,
  "lon": -88.3220862,
  "tags": {
    "ele": "251",
    "fee": "yes",
    "gnis:county_id": "111",
    "gnis:created": "03/25/1999",
    "gnis:feature_id": "1816496",
    "gnis:state_id": "17",
    "name": "Indian Trail Beach",
    "natural": "beach"
  }
},
{
  "type": "node",
  "id": 354225604,
  "lat": 38.7150472,
  "lon": -88.7522759,
  "tags": {
    "ele": "156",
    "gnis:county_id": "121",
    "gnis:created": "03/26/1999",
    "gnis:feature_id": "1821435",
    "gnis:state_id": "17",
    "name": "Rocky Point Beach",
    "natural": "beach"
  }
},
{
  "type": "node",
  "id": 354234770,
  "lat": 41.9925319,
  "lon": -87.6542230,
  "tags": {
    "ele": "176",
    "gnis:county_id": "031",
    "gnis:created": "04/15/1999",
    "gnis:feature_id": "1829785",
    "gnis:state_id": "17",
    "name": "Glenlake Avenue Beach",
    "natural": "beach"
  }
},
{
  "type": "node",
  "id": 354256870,
  "lat": 42.3852983,
  "lon": -88.3484238,
  "tags": {
    "ele": "248",
    "gnis:county_id": "111",
    "gnis:created": "11/19/2002",
    "gnis:feature_id": "1966448",
    "gnis:state_id": "17",
    "name": "Wonder Center Beach",
    "natural": "beach"
  }
},
{
  "type": "node",
  "id": 354273807,
  "lat": 41.9898074,
  "lon": -87.6544321,
  "tags": {
    "ele": "176",
    "gnis:county_id": "031",
    "gnis:created": "05/03/1999",
    "gnis:feature_id": "1836923",
    "gnis:state_id": "17",
    "name": "Thorndale Avenue Beach",
    "natural": "beach"
  }
},
{
  "type": "node",
  "id": 354297787,
  "lat": 42.6260918,
  "lon": -95.2277739,
  "tags": {
    "ele": "427",
    "gnis:county_id": "021",
    "gnis:created": "04/30/1979",
    "gnis:feature_id": "455199",
    "gnis:state_id": "19",
    "name": "Casino Beach",
    "natural": "beach"
  }
},
{
  "type": "node",
  "id": 354298339,
  "lat": 43.3871849,
  "lon": -95.1141616,
  "tags": {
    "ele": "426",
    "gnis:county_id": "059",
    "gnis:created": "04/30/1979",
    "gnis:feature_id": "455336",
    "gnis:state_id": "19",
    "name": "Chalstroms Beach",
    "natural": "beach"
  }
},
{
  "type": "node",
  "id": 354299342,
  "lat": 43.4905171,
  "lon": -95.1249953,
  "tags": {
    "ele": "428",
    "gnis:county_id": "059",
    "gnis:created": "04/30/1979",
    "gnis:feature_id": "455694",
    "gnis:state_id": "19",
    "name": "Crandalls Beach",
    "natural": "beach"
  }
},
{
  "type": "node",
  "id": 354300445,
  "lat": 43.4113506,
  "lon": -95.0741607,
  "tags": {
    "ele": "426",
    "gnis:county_id": "059",
    "gnis:created": "04/30/1979",
    "gnis:feature_id": "456181",
    "gnis:state_id": "19",
    "name": "East Okoboji Beach",
    "natural": "beach"
  }
},
{
  "type": "node",
  "id": 354301287,
  "lat": 43.4199288,
  "lon": -95.1776898,
  "tags": {
    "ele": "427",
    "gnis:county_id": "059",
    "gnis:created": "04/30/1979",
    "gnis:feature_id": "456398",
    "gnis:state_id": "19",
    "name": "Estherville Beach",
    "natural": "beach"
  }
},
{
  "type": "node",
  "id": 354307162,
  "lat": 43.3816293,
  "lon": -95.1038835,
  "tags": {
    "ele": "428",
    "gnis:county_id": "059",
    "gnis:created": "04/30/1979",
    "gnis:feature_id": "458034",
    "gnis:state_id": "19",
    "name": "Kellys Beach",
    "natural": "beach"
  }
},
{
  "type": "node",
  "id": 354308077,
  "lat": 42.6152581,
  "lon": -95.1797168,
  "tags": {
    "ele": "427",
    "gnis:county_id": "021",
    "gnis:created": "04/30/1979",
    "gnis:feature_id": "458202",
    "gnis:state_id": "19",
    "name": "Lakeside Beach",
    "natural": "beach"
  }
},
{
  "type": "node",
  "id": 354309806,
  "lat": 43.4699618,
  "lon": -95.1241620,
  "tags": {
    "ele": "428",
    "gnis:county_id": "059",
    "gnis:created": "04/30/1979",
    "gnis:feature_id": "458794",
    "gnis:state_id": "19",
    "name": "Marble Beach",
    "natural": "beach"
  }
},
{
  "type": "node",
  "id": 354310089,
  "lat": 43.4969054,
  "lon": -95.0924948,
  "tags": {
    "ele": "427",
    "gnis:county_id": "059",
    "gnis:created": "04/30/1979",
    "gnis:feature_id": "458891",
    "gnis:state_id": "19",
    "name": "McClelland Beach",
    "natural": "beach"
  }
},
{
  "type": "node",
  "id": 354310937,
  "lat": 43.3885733,
  "lon": -95.0880498,
  "tags": {
    "ele": "426",
    "gnis:county_id": "059",
    "gnis:created": "04/30/1979",
    "gnis:feature_id": "459215",
    "gnis:state_id": "19",
    "name": "Moores Beach",
    "natural": "beach"
  }
},
{
  "type": "node",
  "id": 354313474,
  "lat": 43.4485727,
  "lon": -95.0922168,
  "tags": {
    "ele": "431",
    "gnis:county_id": "059",
    "gnis:created": "04/30/1979",
    "gnis:feature_id": "459897",
    "gnis:state_id": "19",
    "name": "Orleans Beach",
    "natural": "beach"
  }
},
{
  "type": "node",
  "id": 354329216,
  "lat": 43.3769076,
  "lon": -95.1355511,
  "tags": {
    "ele": "430",
    "gnis:county_id": "057",
    "gnis:created": "01/01/2000",
    "gnis:feature_id": "465336",
    "gnis:state_id": "19",
    "name": "Des Moines Beach",
    "natural": "beach"
  }
},
{
  "type": "node",
  "id": 354329240,
  "lat": 43.4094075,
  "lon": -95.1608296,
  "tags": {
    "ele": "426",
    "gnis:county_id": "059",
    "gnis:created": "01/01/2000",
    "gnis:feature_id": "465331",
    "gnis:state_id": "19",
    "name": "Fairoak Beach",
    "natural": "beach"
  }
},
{
  "type": "node",
  "id": 354330128,
  "lat": 43.3985743,
  "lon": -95.1533294,
  "tags": {
    "ele": "427",
    "gnis:county_id": "059",
    "gnis:created": "01/01/2000",
    "gnis:feature_id": "465332",
    "gnis:state_id": "19",
    "name": "Omaha Beach",
    "natural": "beach"
  }
},
{
  "type": "node",
  "id": 354330136,
  "lat": 43.4260742,
  "lon": -95.1744409,
  "tags": {
    "ele": "426",
    "gnis:county_id": "059",
    "gnis:created": "01/01/2000",
    "gnis:feature_id": "465333",
    "gnis:state_id": "19",
    "name": "Brownells Beach",
    "natural": "beach"
  }
},
{
  "type": "node",
  "id": 354343792,
  "lat": 43.1121820,
  "lon": -93.4377064,
  "tags": {
    "ele": "375",
    "gnis:county_id": "033",
    "gnis:created": "10/23/2001",
    "gnis:feature_id": "1941190",
    "gnis:state_id": "19",
    "name": "Dodges Beach",
    "natural": "beach"
  }
},
{
  "type": "node",
  "id": 354345031,
  "lat": 43.1099598,
  "lon": -93.4502065,
  "tags": {
    "ele": "374",
    "gnis:county_id": "033",
    "gnis:created": "10/23/2001",
    "gnis:feature_id": "1941228",
    "gnis:state_id": "19",
    "name": "Farmers Beach",
    "natural": "beach"
  }
},
{
  "type": "node",
  "id": 354345158,
  "lat": 43.3624635,
  "lon": -95.1433291,
  "tags": {
    "ele": "433",
    "gnis:county_id": "059",
    "gnis:created": "05/07/2001",
    "gnis:feature_id": "1907654",
    "gnis:state_id": "19",
    "name": "Gilleys Beach",
    "natural": "beach"
  }
},
{
  "type": "node",
  "id": 354345214,
  "lat": 43.3516304,
  "lon": -95.1486070,
  "tags": {
    "ele": "435",
    "gnis:county_id": "059",
    "gnis:created": "05/07/2001",
    "gnis:feature_id": "1907657",
    "gnis:state_id": "19",
    "name": "Maywood Beach",
    "natural": "beach"
  }
},
{
  "type": "node",
  "id": 354345219,
  "lat": 43.3555192,
  "lon": -95.1472181,
  "tags": {
    "ele": "430",
    "gnis:county_id": "059",
    "gnis:created": "05/07/2001",
    "gnis:feature_id": "1907656",
    "gnis:state_id": "19",
    "name": "Bay View Beach",
    "natural": "beach"
  }
},
{
  "type": "node",
  "id": 354345223,
  "lat": 43.3582969,
  "lon": -95.1474959,
  "tags": {
    "ele": "439",
    "gnis:county_id": "059",
    "gnis:created": "05/07/2001",
    "gnis:feature_id": "1907655",
    "gnis:state_id": "19",
    "name": "Wheelers Beach",
    "natural": "beach"
  }
},
{
  "type": "node",
  "id": 354345303,
  "lat": 43.4894050,
  "lon": -95.0541608,
  "tags": {
    "ele": "428",
    "gnis:county_id": "059",
    "gnis:created": "05/07/2001",
    "gnis:feature_id": "1907558",
    "gnis:state_id": "19",
    "name": "Harlan Beach",
    "natural": "beach"
  }
},
{
  "type": "node",
  "id": 354345309,
  "lat": 43.4916273,
  "lon": -95.0549941,
  "tags": {
    "ele": "431",
    "gnis:county_id": "059",
    "gnis:created": "05/07/2001",
    "gnis:feature_id": "1907557",
    "gnis:state_id": "19",
    "name": "Martha Yarns Memorial Beach",
    "natural": "beach"
  }
},
{
  "type": "node",
  "id": 354345319,
  "lat": 43.4860717,
  "lon": -95.0544386,
  "tags": {
    "ele": "428",
    "gnis:county_id": "059",
    "gnis:created": "05/07/2001",
    "gnis:feature_id": "1907559",
    "gnis:state_id": "19",
    "name": "Sandbar Beach",
    "natural": "beach"
  }
},
{
  "type": "node",
  "id": 354345322,
  "lat": 43.3955188,
  "lon": -95.1530516,
  "tags": {
    "ele": "430",
    "gnis:county_id": "059",
    "gnis:created": "05/07/2001",
    "gnis:feature_id": "1907548",
    "gnis:state_id": "19",
    "name": "Omaha Beach",
    "natural": "beach"
  }
},
{
  "type": "node",
  "id": 354345326,
  "lat": 43.4110742,
  "lon": -95.1613851,
  "tags": {
    "ele": "431",
    "gnis:county_id": "059",
    "gnis:created": "05/07/2001",
    "gnis:feature_id": "1907546",
    "gnis:state_id": "19",
    "name": "Fairoaks Beach",
    "natural": "beach"
  }
},
{
  "type": "node",
  "id": 354345331,
  "lat": 43.4963495,
  "lon": -95.0586053,
  "tags": {
    "ele": "428",
    "gnis:county_id": "059",
    "gnis:created": "05/07/2001",
    "gnis:feature_id": "1907556",
    "gnis:state_id": "19",
    "name": "Anglers Bay Beach",
    "natural": "beach"
  }
},
{
  "type": "node",
  "id": 354345337,
  "lat": 43.3852410,
  "lon": -95.1469403,
  "tags": {
    "ele": "425",
    "gnis:county_id": "059",
    "gnis:created": "05/07/2001",
    "gnis:feature_id": "1907550",
    "gnis:state_id": "19",
    "name": "Dixon Beach",
    "natural": "beach"
  }
},
{
  "type": "node",
  "id": 354345350,
  "lat": 43.4082967,
  "lon": -95.1799966,
  "tags": {
    "ele": "426",
    "gnis:county_id": "059",
    "gnis:created": "05/07/2001",
    "gnis:feature_id": "1907541",
    "gnis:state_id": "19",
    "name": "Egralharve Beach",
    "natural": "beach"
  }
},
{
  "type": "node",
  "id": 354345355,
  "lat": 43.4192060,
  "lon": -95.1779531,
  "tags": {
    "ele": "427",
    "gnis:county_id": "059",
    "gnis:created": "05/07/2001",
    "gnis:feature_id": "1907543",
    "gnis:state_id": "19",
    "name": "Raebels Beach",
    "natural": "beach"
  }
},
{
  "type": "node",
  "id": 354345385,
  "lat": 43.4402395,
  "lon": -95.0919390,
  "tags": {
    "ele": "432",
    "gnis:county_id": "059",
    "gnis:created": "05/07/2001",
    "gnis:feature_id": "1907583",
    "gnis:state_id": "19",
    "name": "Pioneer Beach",
    "natural": "beach"
  }
},
{
  "type": "node",
  "id": 354345677,
  "lat": 43.3771853,
  "lon": -95.1336066,
  "tags": {
    "ele": "437",
    "gnis:county_id": "059",
    "gnis:created": "05/07/2001",
    "gnis:feature_id": "1907650",
    "gnis:state_id": "19",
    "name": "Des Moines Beach",
    "natural": "beach"
  }
},
{
  "type": "node",
  "id": 354345686,
  "lat": 43.3660745,
  "lon": -95.1419402,
  "tags": {
    "ele": "430",
    "gnis:county_id": "059",
    "gnis:created": "05/07/2001",
    "gnis:feature_id": "1907653",
    "gnis:state_id": "19",
    "name": "Sunset Beach",
    "natural": "beach"
  }
},
{
  "type": "node",
  "id": 354345692,
  "lat": 43.3549639,
  "lon": -95.1627741,
  "tags": {
    "ele": "426",
    "gnis:county_id": "059",
    "gnis:created": "05/07/2001",
    "gnis:feature_id": "1907648",
    "gnis:state_id": "19",
    "name": "Jones Beach",
    "natural": "beach"
  }
},
{
  "type": "node",
  "id": 354345697,
  "lat": 43.3694081,
  "lon": -95.1611074,
  "tags": {
    "ele": "426",
    "gnis:county_id": "059",
    "gnis:created": "05/07/2001",
    "gnis:feature_id": "1907643",
    "gnis:state_id": "19",
    "name": "Spencer Beach",
    "natural": "beach"
  }
},
{
  "type": "node",
  "id": 354345700,
  "lat": 43.3707964,
  "lon": -95.1286064,
  "tags": {
    "ele": "426",
    "gnis:county_id": "059",
    "gnis:created": "05/07/2001",
    "gnis:feature_id": "1907652",
    "gnis:state_id": "19",
    "name": "Fillenworth Beach",
    "natural": "beach"
  }
},
{
  "type": "node",
  "id": 354345705,
  "lat": 43.3654198,
  "lon": -95.1708463,
  "tags": {
    "ele": "426",
    "gnis:county_id": "059",
    "gnis:created": "05/07/2001",
    "gnis:feature_id": "1907647",
    "gnis:state_id": "19",
    "name": "Crescent Beach",
    "natural": "beach"
  }
},
{
  "type": "node",
  "id": 354345730,
  "lat": 43.3703434,
  "lon": -95.1603767,
  "tags": {
    "ele": "427",
    "gnis:county_id": "059",
    "gnis:created": "05/07/2001",
    "gnis:feature_id": "1907642",
    "gnis:state_id": "19",
    "name": "Arrowhead Beach",
    "natural": "beach"
  }
},
{
  "type": "node",
  "id": 354345739,
  "lat": 43.3652278,
  "lon": -95.1713451,
  "tags": {
    "ele": "426",
    "gnis:county_id": "059",
    "gnis:created": "05/07/2001",
    "gnis:feature_id": "1907646",
    "gnis:state_id": "19",
    "name": "Milford Beach",
    "natural": "beach"
  }
},
{
  "type": "node",
  "id": 354345745,
  "lat": 43.3749421,
  "lon": -95.1727567,
  "tags": {
    "ele": "426",
    "gnis:county_id": "059",
    "gnis:created": "05/07/2001",
    "gnis:feature_id": "1907641",
    "gnis:state_id": "19",
    "name": "Papoose Beach",
    "natural": "beach"
  }
},
{
  "type": "node",
  "id": 354345759,
  "lat": 43.3922441,
  "lon": -95.1659056,
  "tags": {
    "ele": "431",
    "gnis:county_id": "059",
    "gnis:created": "05/07/2001",
    "gnis:feature_id": "1907640",
    "gnis:state_id": "19",
    "name": "Manhattan Beach",
    "natural": "beach"
  }
},
{
  "type": "node",
  "id": 354346170,
  "lat": 43.4457950,
  "lon": -95.0974947,
  "tags": {
    "ele": "427",
    "gnis:county_id": "059",
    "gnis:created": "05/07/2001",
    "gnis:feature_id": "1907565",
    "gnis:state_id": "19",
    "name": "Ainsworth Beach",
    "natural": "beach"
  }
},
{
  "type": "node",
  "id": 354346174,
  "lat": 43.4499616,
  "lon": -95.0913835,
  "tags": {
    "ele": "428",
    "gnis:county_id": "059",
    "gnis:created": "05/07/2001",
    "gnis:feature_id": "1907564",
    "gnis:state_id": "19",
    "name": "Miniwaukon Beach",
    "natural": "beach"
  }
},
{
  "type": "node",
  "id": 354346179,
  "lat": 43.4582947,
  "lon": -95.0883280,
  "tags": {
    "ele": "427",
    "gnis:county_id": "059",
    "gnis:created": "05/07/2001",
    "gnis:feature_id": "1907563",
    "gnis:state_id": "19",
    "name": "Inwood Park Beach",
    "natural": "beach"
  }
},
{
  "type": "node",
  "id": 354346184,
  "lat": 43.4657946,
  "lon": -95.0836056,
  "tags": {
    "ele": "431",
    "gnis:county_id": "059",
    "gnis:created": "05/07/2001",
    "gnis:feature_id": "1907562",
    "gnis:state_id": "19",
    "name": "Maple Oak Beach",
    "natural": "beach"
  }
},
{
  "type": "node",
  "id": 354346192,
  "lat": 43.3708572,
  "lon": -95.1221999,
  "tags": {
    "ele": "427",
    "gnis:county_id": "059",
    "gnis:created": "05/07/2001",
    "gnis:feature_id": "1907571",
    "gnis:state_id": "19",
    "name": "Kruses Beach",
    "natural": "beach"
  }
},
{
  "type": "node",
  "id": 354346197,
  "lat": 43.3860740,
  "lon": -95.1249952,
  "tags": {
    "ele": "426",
    "gnis:county_id": "059",
    "gnis:created": "05/07/2001",
    "gnis:feature_id": "1907569",
    "gnis:state_id": "19",
    "name": "Brooks Beach",
    "natural": "beach"
  }
},
{
  "type": "node",
  "id": 354346201,
  "lat": 43.3838514,
  "lon": -95.1002723,
  "tags": {
    "ele": "429",
    "gnis:county_id": "059",
    "gnis:created": "05/07/2001",
    "gnis:feature_id": "1907567",
    "gnis:state_id": "19",
    "name": "Twin Hills Beach",
    "natural": "beach"
  }
},
{
  "type": "node",
  "id": 354476892,
  "lat": 59.7650871,
  "lon": 17.6309143,
  "tags": {
    "ele": "0.606567",
    "leisure": "beach",
    "name": "Oxtorget",
    "natural": "beach",
    "place": "locality"
  }
},
{
  "type": "node",
  "id": 354477084,
  "lat": 59.7678300,
  "lon": 17.6319078,
  "tags": {
    "ele": "0.606567",
    "natural": "beach"
  }
},
{
  "type": "node",
  "id": 354477328,
  "lat": 59.7716600,
  "lon": 17.6388761,
  "tags": {
    "ele": "7.095337",
    "natural": "beach",
    "place": "locality",
    "source": "survey"
  }
},
{
  "type": "node",
  "id": 354527458,
  "lat": 45.3385968,
  "lon": -86.9070621,
  "tags": {
    "ele": "176",
    "gnis:county_id": "029",
    "gnis:created": "05/03/1999",
    "gnis:feature_id": "1838054",
    "gnis:state_id": "55",
    "name": "Gislason Beach",
    "natural": "beach"
  }
},
{
  "type": "node",
  "id": 354528810,
  "lat": 42.6705667,
  "lon": -89.0067775,
  "tags": {
    "ele": "234",
    "gnis:county_id": "105",
    "gnis:created": "04/29/1999",
    "gnis:feature_id": "1834077",
    "gnis:state_id": "55",
    "name": "Lions Beach",
    "natural": "beach"
  }
},
{
  "type": "node",
  "id": 354529005,
  "lat": 44.9983006,
  "lon": -92.7643710,
  "tags": {
    "ele": "207",
    "gnis:county_id": "109",
    "gnis:created": "04/16/1999",
    "gnis:feature_id": "1831731",
    "gnis:state_id": "55",
    "name": "Browns Beach",
    "natural": "beach"
  }
},
{
  "type": "node",
  "id": 354530225,
  "lat": 44.8138491,
  "lon": -91.5148836,
  "tags": {
    "ele": "235",
    "gnis:county_id": "035",
    "gnis:created": "06/25/1999",
    "gnis:feature_id": "1846685",
    "gnis:state_id": "55",
    "name": "Half Moon Beach",
    "natural": "beach"
  }
},
{
  "type": "node",
  "id": 354530852,
  "lat": 43.8124664,
  "lon": -91.2612482,
  "tags": {
    "ele": "193",
    "gnis:county_id": "063",
    "gnis:created": "06/01/1999",
    "gnis:feature_id": "1843370",
    "gnis:state_id": "55",
    "name": "Pettibone Beach",
    "natural": "beach"
  }
},
{
  "type": "node",
  "id": 354530907,
  "lat": 43.5516483,
  "lon": -89.4728983,
  "tags": {
    "ele": "243",
    "gnis:county_id": "021",
    "gnis:created": "06/01/1999",
    "gnis:feature_id": "1843035",
    "gnis:state_id": "55",
    "name": "Silver Lake Beach",
    "natural": "beach"
  }
},
{
  "type": "node",
  "id": 354531131,
  "lat": 43.8440870,
  "lon": -91.2502464,
  "tags": {
    "ele": "193",
    "gnis:county_id": "063",
    "gnis:created": "06/01/1999",
    "gnis:feature_id": "1843219",
    "gnis:state_id": "55",
    "name": "Black River Public Beach",
    "natural": "beach"
  }
},
{
  "type": "node",
  "id": 355615592,
  "lat": 59.8204588,
  "lon": 10.4761277,
  "tags": {
    "created_by": "Potlatch 0.10f",
    "natural": "beach"
  }
},
{
  "type": "node",
  "id": 355615688,
  "lat": 59.8342538,
  "lon": 10.4978899,
  "tags": {
    "created_by": "Potlatch 0.10f",
    "natural": "beach"
  }
},
{
  "type": "node",
  "id": 356539635,
  "lat": 48.4862144,
  "lon": -122.6673957,
  "tags": {
    "ele": "3",
    "gnis:county_id": "057",
    "gnis:created": "09/10/1979",
    "gnis:feature_id": "1503020",
    "gnis:state_id": "53",
    "name": "Anaco Beach",
    "natural": "beach"
  }
},
{
  "type": "node",
  "id": 356539730,
  "lat": 48.5763104,
  "lon": -122.5061165,
  "tags": {
    "ele": "0",
    "gnis:county_id": "057",
    "gnis:created": "09/10/1979",
    "gnis:feature_id": "1503450",
    "gnis:state_id": "53",
    "name": "Blue Heron Beach",
    "natural": "beach"
  }
},
{
  "type": "node",
  "id": 356539893,
  "lat": 47.1108398,
  "lon": -122.9374362,
  "tags": {
    "ele": "4",
    "gnis:county_id": "067",
    "gnis:created": "09/10/1979",
    "gnis:feature_id": "1504200",
    "gnis:state_id": "53",
    "name": "Countryside Beach",
    "natural": "beach"
  }
},
{
  "type": "node",
  "id": 356539909,
  "lat": 48.6951045,
  "lon": -122.8951845,
  "tags": {
    "ele": "11",
    "gnis:county_id": "055",
    "gnis:created": "09/10/1979",
    "gnis:feature_id": "1504267",
    "gnis:state_id": "53",
    "name": "Crescent Beach",
    "natural": "beach"
  }
},
{
  "type": "node",
  "id": 356540086,
  "lat": 48.4206553,
  "lon": -122.8693433,
  "tags": {
    "ele": "10",
    "gnis:county_id": "055",
    "gnis:created": "09/10/1979",
    "gnis:feature_id": "1504936",
    "gnis:state_id": "53",
    "name": "Flint Beach",
    "natural": "beach"
  }
},
{
  "type": "node",
  "id": 356540244,
  "lat": 48.7271233,
  "lon": -122.6426163,
  "tags": {
    "ele": "5",
    "gnis:county_id": "073",
    "gnis:created": "09/10/1979",
    "gnis:feature_id": "1505474",
    "gnis:state_id": "53",
    "name": "Hermosa Beach",
    "natural": "beach"
  }
},
{
  "type": "node",
  "id": 356540267,
  "lat": 48.3381199,
  "lon": -124.6646848,
  "tags": {
    "ele": "2",
    "gnis:county_id": "009",
    "gnis:created": "09/10/1979",
    "gnis:feature_id": "1505533",
    "gnis:state_id": "53",
    "name": "Hobuck Beach",
    "natural": "beach"
  }
},
{
  "type": "node",
  "id": 356540726,
  "lat": 48.7106600,
  "lon": -122.9282410,
  "tags": {
    "ele": "5",
    "gnis:county_id": "055",
    "gnis:created": "09/10/1979",
    "gnis:feature_id": "1507017",
    "gnis:state_id": "53",
    "name": "North Beach",
    "natural": "beach"
  }
},
{
  "type": "node",
  "id": 356540747,
  "lat": 47.3435733,
  "lon": -122.4622665,
  "tags": {
    "ele": "1",
    "gnis:county_id": "033",
    "gnis:created": "09/10/1979",
    "gnis:feature_id": "1507108",
    "gnis:state_id": "53",
    "name": "Northilla Beach",
    "natural": "beach"
  }
},
{
  "type": "node",
  "id": 356541127,
  "lat": 47.7109117,
  "lon": -124.4154769,
  "tags": {
    "ele": "3",
    "gnis:county_id": "031",
    "gnis:created": "09/10/1979",
    "gnis:feature_id": "1507953",
    "gnis:state_id": "53",
    "name": "Ruby Beach",
    "natural": "beach"
  }
},
{
  "type": "node",
  "id": 356541184,
  "lat": 48.5753842,
  "lon": -122.5185021,
  "tags": {
    "ele": "5",
    "gnis:county_id": "057",
    "gnis:created": "09/10/1979",
    "gnis:feature_id": "1508070",
    "gnis:state_id": "53",
    "name": "Samish Beach",
    "natural": "beach"
  }
},
{
  "type": "node",
  "id": 356541288,
  "lat": 48.5637123,
  "lon": -122.9379579,
  "tags": {
    "ele": "1",
    "gnis:county_id": "055",
    "gnis:created": "09/10/1979",
    "gnis:feature_id": "1508504",
    "gnis:state_id": "53",
    "name": "South Beach",
    "natural": "beach"
  }
},
{
  "type": "node",
  "id": 356541366,
  "lat": 48.5020476,
  "lon": -122.6912859,
  "tags": {
    "ele": "0",
    "gnis:county_id": "057",
    "gnis:created": "09/10/1979",
    "gnis:feature_id": "1508838",
    "gnis:state_id": "53",
    "name": "Sunset Beach",
    "natural": "beach"
  }
},
{
  "type": "node",
  "id": 356541390,
  "lat": 48.7134382,
  "lon": -122.8901851,
  "tags": {
    "ele": "2",
    "gnis:county_id": "055",
    "gnis:created": "09/10/1979",
    "gnis:feature_id": "1508955",
    "gnis:state_id": "53",
    "name": "Terrill Beach",
    "natural": "beach"
  }
},
{
  "type": "node",
  "id": 356541399,
  "lat": 48.3672919,
  "lon": -124.5694009,
  "tags": {
    "ele": "9",
    "gnis:county_id": "009",
    "gnis:created": "09/10/1979",
    "gnis:feature_id": "1508982",
    "gnis:state_id": "53",
    "name": "Third Beach",
    "natural": "beach"
  }
},
{
  "type": "node",
  "id": 356541403,
  "lat": 47.8773681,
  "lon": -124.5868383,
  "tags": {
    "ele": "83",
    "gnis:county_id": "009",
    "gnis:created": "09/10/1979",
    "gnis:feature_id": "1509010",
    "gnis:state_id": "53",
    "name": "Third Beach",
    "natural": "beach"
  }
},
{
  "type": "node",
  "id": 356541426,
  "lat": 48.0828740,
  "lon": -122.3212558,
  "tags": {
    "ele": "9",
    "gnis:county_id": "061",
    "gnis:created": "09/10/1979",
    "gnis:feature_id": "1509109",
    "gnis:state_id": "53",
    "name": "Tulalip Shores",
    "natural": "beach"
  }
},
{
  "type": "node",
  "id": 356541528,
  "lat": 48.2312098,
  "lon": -122.7676734,
  "tags": {
    "ele": "1",
    "gnis:county_id": "029",
    "gnis:created": "09/10/1979",
    "gnis:feature_id": "1509382",
    "gnis:state_id": "53",
    "name": "West Beach",
    "natural": "beach"
  }
},
{
  "type": "node",
  "id": 356541546,
  "lat": 48.6103808,
  "lon": -122.8651812,
  "tags": {
    "ele": "24",
    "gnis:county_id": "055",
    "gnis:created": "09/10/1979",
    "gnis:feature_id": "1509460",
    "gnis:state_id": "53",
    "name": "White Beach",
    "natural": "beach"
  }
},
{
  "type": "node",
  "id": 356541615,
  "lat": 47.5689894,
  "lon": -122.0659537,
  "tags": {
    "ele": "10",
    "fixme": "Please verify location",
    "gnis:county_id": "033",
    "gnis:created": "08/01/1990",
    "gnis:feature_id": "1509774",
    "gnis:state_id": "53",
    "name": "Alexander Beach",
    "natural": "beach"
  }
},
{
  "type": "node",
  "id": 356541721,
  "lat": 48.3706246,
  "lon": -124.5805128,
  "tags": {
    "ele": "0",
    "gnis:county_id": "009",
    "gnis:created": "09/01/1990",
    "gnis:feature_id": "1510084",
    "gnis:state_id": "53",
    "name": "Second Beach",
    "natural": "beach"
  }
},
{
  "type": "node",
  "id": 356541722,
  "lat": 48.3714577,
  "lon": -124.5863465,
  "tags": {
    "ele": "0",
    "gnis:county_id": "009",
    "gnis:created": "09/01/1990",
    "gnis:feature_id": "1510085",
    "gnis:state_id": "53",
    "name": "First Beach",
    "natural": "beach"
  }
},
{
  "type": "node",
  "id": 356541800,
  "lat": 48.3886317,
  "lon": -124.6649618,
  "tags": {
    "ele": "3",
    "gnis:county_id": "009",
    "gnis:created": "10/01/1990",
    "gnis:feature_id": "1510309",
    "gnis:state_id": "53",
    "name": "Warmhouse Beach",
    "natural": "beach"
  }
},
{
  "type": "node",
  "id": 356541813,
  "lat": 47.4039883,
  "lon": -122.3304015,
  "tags": {
    "ele": "5",
    "gnis:county_id": "033",
    "gnis:created": "01/01/1991",
    "gnis:feature_id": "1510386",
    "gnis:state_id": "53",
    "name": "Des Moines Beach",
    "natural": "beach"
  }
},
{
  "type": "node",
  "id": 356542020,
  "lat": 48.7106624,
  "lon": -122.6312878,
  "tags": {
    "ele": "0",
    "gnis:county_id": "073",
    "gnis:created": "05/01/1992",
    "gnis:feature_id": "1511939",
    "gnis:state_id": "53",
    "name": "Neontawanta Beach",
    "natural": "beach"
  }
},
{
  "type": "node",
  "id": 356543067,
  "lat": 47.8145409,
  "lon": -122.3809666,
  "tags": {
    "ele": "0",
    "gnis:county_id": "061",
    "gnis:created": "11/01/1992",
    "gnis:feature_id": "1514486",
    "gnis:state_id": "53",
    "name": "Sunset Beach",
    "natural": "beach"
  }
},
{
  "type": "node",
  "id": 356543181,
  "lat": 48.2378770,
  "lon": -122.6901702,
  "tags": {
    "ele": "12",
    "gnis:county_id": "029",
    "gnis:created": "03/01/1993",
    "gnis:feature_id": "1514649",
    "gnis:state_id": "53",
    "name": "Monroe Landing",
    "natural": "beach"
  }
},
{
  "type": "node",
  "id": 356543279,
  "lat": 48.4564821,
  "lon": -123.0006201,
  "tags": {
    "ele": "42",
    "gnis:county_id": "055",
    "gnis:created": "03/01/1993",
    "gnis:feature_id": "1514901",
    "gnis:state_id": "53",
    "name": "South Beach",
    "natural": "beach"
  }
},
{
  "type": "node",
  "id": 356543286,
  "lat": 48.5198216,
  "lon": -123.0110123,
  "tags": {
    "ele": "2",
    "gnis:county_id": "055",
    "gnis:created": "03/01/1993",
    "gnis:feature_id": "1514917",
    "gnis:state_id": "53",
    "name": "Jackson Beach",
    "natural": "beach"
  }
},
{
  "type": "node",
  "id": 356545750,
  "lat": 47.6445372,
  "lon": -122.8562665,
  "tags": {
    "ele": "2",
    "gnis:county_id": "035",
    "gnis:created": "09/10/1979",
    "gnis:feature_id": "1522684",
    "gnis:state_id": "53",
    "name": "Maple Beach",
    "natural": "beach"
  }
},
{
  "type": "node",
  "id": 356545870,
  "lat": 47.8516375,
  "lon": -120.1192542,
  "tags": {
    "ele": "336",
    "gnis:county_id": "007",
    "gnis:created": "09/10/1979",
    "gnis:feature_id": "1523244",
    "gnis:state_id": "53",
    "name": "Minneapolis Beach",
    "natural": "beach"
  }
},
{
  "type": "node",
  "id": 356546342,
  "lat": 48.0396184,
  "lon": -117.3857761,
  "tags": {
    "ele": "582",
    "gnis:county_id": "063",
    "gnis:created": "09/10/1979",
    "gnis:feature_id": "1525427",
    "gnis:state_id": "53",
    "name": "Sandy Beach",
    "natural": "beach"
  }
},
{
  "type": "node",
  "id": 356546355,
  "lat": 47.6500928,
  "lon": -122.8470998,
  "tags": {
    "ele": "1",
    "gnis:county_id": "035",
    "gnis:created": "09/10/1979",
    "gnis:feature_id": "1525487",
    "gnis:state_id": "53",
    "name": "Scenic Beach",
    "natural": "beach"
  }
},
{
  "type": "node",
  "id": 356547083,
  "lat": 47.8024891,
  "lon": -124.4831273,
  "tags": {
    "ele": "66",
    "gnis:county_id": "031",
    "gnis:created": "07/01/1990",
    "gnis:feature_id": "1528634",
    "gnis:state_id": "53",
    "name": "Boulder Beach",
    "natural": "beach"
  }
},
{
  "type": "node",
  "id": 356547109,
  "lat": 48.2968339,
  "lon": -118.3722243,
  "tags": {
    "ele": "794",
    "gnis:county_id": "019",
    "gnis:created": "07/01/1990",
    "gnis:feature_id": "1528738",
    "gnis:state_id": "53",
    "name": "Carson Beach",
    "natural": "beach"
  }
},
{
  "type": "node",
  "id": 356548116,
  "lat": 48.6342702,
  "lon": -122.8574042,
  "tags": {
    "ele": "2",
    "gnis:county_id": "055",
    "gnis:created": "08/01/1993",
    "gnis:feature_id": "1531374",
    "gnis:state_id": "53",
    "name": "Chin-Chin-Tse-Tung",
    "natural": "beach"
  }
},
{
  "type": "node",
  "id": 356548117,
  "lat": 48.6870481,
  "lon": -122.9568516,
  "tags": {
    "ele": "9",
    "gnis:county_id": "055",
    "gnis:created": "08/01/1993",
    "gnis:feature_id": "1531379",
    "gnis:state_id": "53",
    "name": "Kimple Beach",
    "natural": "beach"
  }
},
{
  "type": "node",
  "id": 356548121,
  "lat": 48.6123253,
  "lon": -122.8618480,
  "tags": {
    "ele": "0",
    "gnis:county_id": "055",
    "gnis:created": "08/01/1993",
    "gnis:feature_id": "1531394",
    "gnis:state_id": "53",
    "name": "Green Bank",
    "natural": "beach"
  }
},
{
  "type": "node",
  "id": 356549765,
  "lat": 47.3092656,
  "lon": -122.4312358,
  "tags": {
    "ele": "39",
    "gnis:county_id": "053",
    "gnis:created": "05/01/1995",
    "gnis:feature_id": "1533534",
    "gnis:state_id": "53",
    "name": "Caledonia Beach",
    "natural": "beach"
  }
},
{
  "type": "node",
  "id": 356550184,
  "lat": 48.6003825,
  "lon": -122.7012888,
  "tags": {
    "ele": "13",
    "gnis:county_id": "057",
    "gnis:created": "02/21/1996",
    "gnis:feature_id": "1675514",
    "gnis:state_id": "53",
    "name": "Pelican Beach",
    "natural": "beach"
  }
},
{
  "type": "node",
  "id": 356550200,
  "lat": 48.4700986,
  "lon": -123.0057332,
  "tags": {
    "ele": "4",
    "gnis:county_id": "055",
    "gnis:created": "07/15/2003",
    "gnis:feature_id": "1989265",
    "gnis:state_id": "53",
    "name": "Fourth of July Beach",
    "natural": "beach"
  }
},
{
  "type": "node",
  "id": 356556616,
  "lat": 44.2725602,
  "lon": -72.2634311,
  "tags": {
    "ele": "328",
    "gnis:county_id": "005",
    "gnis:created": "05/08/2001",
    "gnis:feature_id": "1919443",
    "gnis:state_id": "50",
    "name": "Boulder Beach",
    "natural": "beach"
  }
},
{
  "type": "node",
  "id": 356557827,
  "lat": 44.9186584,
  "lon": -72.1014883,
  "tags": {
    "ele": "293",
    "gnis:county_id": "019",
    "gnis:created": "05/08/2001",
    "gnis:feature_id": "1921672",
    "gnis:state_id": "50",
    "name": "Balm of Gilead Beach",
    "natural": "beach"
  }
},
{
  "type": "node",
  "id": 356559224,
  "lat": 17.7624726,
  "lon": -64.8320899,
  "tags": {
    "ele": "3",
    "gnis:county_id": "010",
    "gnis:created": "01/26/1981",
    "gnis:feature_id": "1613864",
    "gnis:state_id": "78",
    "name": "Davis Beach",
    "natural": "beach"
  }
},
{
  "type": "node",
  "id": 356559366,
  "lat": 18.3094000,
  "lon": -64.9532013,
  "tags": {
    "ele": "20",
    "gnis:county_id": "030",
    "gnis:created": "01/01/2000",
    "gnis:feature_id": "1614455",
    "gnis:state_id": "78",
    "name": "Revenge Beach",
    "natural": "beach"
  }
},
{
  "type": "node",
  "id": 356559375,
  "lat": 17.7477509,
  "lon": -64.6915307,
  "tags": {
    "ele": "9",
    "gnis:county_id": "010",
    "gnis:created": "01/01/2000",
    "gnis:feature_id": "1993339",
    "gnis:state_id": "78",
    "name": "Altona Lagoon Beach",
    "natural": "beach"
  }
},
{
  "type": "node",
  "id": 356559377,
  "lat": 18.3635645,
  "lon": -64.7245812,
  "tags": {
    "ele": "0",
    "gnis:county_id": "020",
    "gnis:created": "01/01/2000",
    "gnis:feature_id": "1993348",
    "gnis:state_id": "78",
    "name": "Annaberg Beach",
    "natural": "beach"
  }
},
{
  "type": "node",
  "id": 356559384,
  "lat": 18.3030113,
  "lon": -64.7026359,
  "tags": {
    "ele": "19",
    "gnis:county_id": "020",
    "gnis:created": "01/01/2000",
    "gnis:feature_id": "1993361",
    "gnis:state_id": "78",
    "name": "Blue Cobblestone Beach",
    "natural": "beach"
  }
},
{
  "type": "node",
  "id": 356559386,
  "lat": 18.3613443,
  "lon": -65.0159818,
  "tags": {
    "ele": "21",
    "gnis:county_id": "030",
    "gnis:created": "01/01/2000",
    "gnis:feature_id": "1993364",
    "gnis:state_id": "78",
    "name": "Bordeaux Beach",
    "natural": "beach"
  }
},
{
  "type": "node",
  "id": 356559389,
  "lat": 18.3607869,
  "lon": -64.7059696,
  "tags": {
    "ele": "2",
    "gnis:county_id": "020",
    "gnis:created": "01/01/2000",
    "gnis:feature_id": "1993372",
    "gnis:state_id": "78",
    "name": "Brown Bay Beach",
    "natural": "beach"
  }
},
{
  "type": "node",
  "id": 356559390,
  "lat": 17.7558063,
  "lon": -64.6837528,
  "tags": {
    "ele": "2",
    "gnis:county_id": "010",
    "gnis:created": "01/01/2000",
    "gnis:feature_id": "1993374",
    "gnis:state_id": "78",
    "name": "Buccaneer Beach",
    "natural": "beach"
  }
},
{
  "type": "node",
  "id": 356559391,
  "lat": 18.3257877,
  "lon": -64.8334733,
  "tags": {
    "ele": "14",
    "gnis:county_id": "030",
    "gnis:created": "01/01/2000",
    "gnis:feature_id": "1993383",
    "gnis:state_id": "78",
    "name": "Cabrita Point Beach",
    "natural": "beach"
  }
},
{
  "type": "node",
  "id": 356559392,
  "lat": 17.7741389,
  "lon": -64.8095894,
  "tags": {
    "ele": "3",
    "gnis:county_id": "010",
    "gnis:created": "01/01/2000",
    "gnis:feature_id": "1993384",
    "gnis:state_id": "78",
    "name": "Cane Bay Beach",
    "natural": "beach"
  }
},
{
  "type": "node",
  "id": 356559393,
  "lat": 18.3489798,
  "lon": -64.7849727,
  "tags": {
    "ele": "7",
    "gnis:county_id": "020",
    "gnis:created": "01/01/2000",
    "gnis:feature_id": "1993386",
    "gnis:state_id": "78",
    "name": "Caneel Hawksnest Beach",
    "natural": "beach"
  }
},
{
  "type": "node",
  "id": 356559395,
  "lat": 17.6821981,
  "lon": -64.8334795,
  "tags": {
    "ele": "4",
    "gnis:county_id": "010",
    "gnis:created": "01/01/2000",
    "gnis:feature_id": "1993391",
    "gnis:state_id": "78",
    "name": "Carlton Beach",
    "natural": "beach"
  }
},
{
  "type": "node",
  "id": 356559396,
  "lat": 17.7491396,
  "lon": -64.7031976,
  "tags": {
    "ele": "0",
    "gnis:county_id": "010",
    "gnis:created": "01/01/2000",
    "gnis:feature_id": "1993395",
    "gnis:state_id": "78",
    "name": "Cay Beach",
    "natural": "beach"
  }
},
{
  "type": "node",
  "id": 356559406,
  "lat": 18.3563424,
  "lon": -64.7523596,
  "tags": {
    "ele": "12",
    "gnis:county_id": "020",
    "gnis:created": "01/01/2000",
    "gnis:feature_id": "1993407",
    "gnis:state_id": "78",
    "name": "Cinnamon Bay Beach",
    "natural": "beach"
  }
},
{
  "type": "node",
  "id": 356559407,
  "lat": 18.3524536,
  "lon": -64.7604153,
  "tags": {
    "ele": "11",
    "gnis:county_id": "020",
    "gnis:created": "01/01/2000",
    "gnis:feature_id": "1993409",
    "gnis:state_id": "78",
    "name": "Cinnamon Bay Campground Beach",
    "natural": "beach"
  }
},
{
  "type": "node",
  "id": 356559408,
  "lat": 18.3152327,
  "lon": -64.7598596,
  "tags": {
    "ele": "7",
    "gnis:county_id": "020",
    "gnis:created": "01/01/2000",
    "gnis:feature_id": "1993412",
    "gnis:state_id": "78",
    "name": "Cocoloba Beach",
    "natural": "beach"
  }
},
{
  "type": "node",
  "id": 356559412,
  "lat": 17.7752493,
  "lon": -64.7426428,
  "tags": {
    "ele": "3",
    "gnis:county_id": "010",
    "gnis:created": "01/01/2000",
    "gnis:feature_id": "1993423",
    "gnis:state_id": "78",
    "name": "Cormorant Beach",
    "natural": "beach"
  }
},
{
  "type": "node",
  "id": 356559413,
  "lat": 17.7758048,
  "lon": -64.7431983,
  "tags": {
    "ele": "4",
    "gnis:county_id": "010",
    "gnis:created": "01/01/2000",
    "gnis:feature_id": "1993424",
    "gnis:state_id": "78",
    "name": "Cormorant Beach Club",
    "natural": "beach"
  }
},
{
  "type": "node",
  "id": 356559414,
  "lat": 17.7586484,
  "lon": -64.5859271,
  "tags": {
    "ele": "3",
    "gnis:county_id": "010",
    "gnis:created": "01/01/2000",
    "gnis:feature_id": "1993425",
    "gnis:state_id": "78",
    "name": "Cottongarden Bay Beach",
    "natural": "beach"
  }
},
{
  "type": "node",
  "id": 356559415,
  "lat": 17.7602512,
  "lon": -64.5812492,
  "tags": {
    "ele": "0",
    "gnis:county_id": "010",
    "gnis:created": "01/01/2000",
    "gnis:feature_id": "1993426",
    "gnis:state_id": "78",
    "name": "Cramer Park Beach",
    "natural": "beach"
  }
},
{
  "type": "node",
  "id": 356559416,
  "lat": 18.3305591,
  "lon": -64.7963377,
  "tags": {
    "ele": "6",
    "gnis:county_id": "020",
    "gnis:created": "01/01/2000",
    "gnis:feature_id": "1993430",
    "gnis:state_id": "78",
    "name": "Cruz Bay Beach",
    "natural": "beach"
  }
},
{
  "type": "node",
  "id": 356559427,
  "lat": 18.3455330,
  "lon": -65.0155769,
  "tags": {
    "ele": "9",
    "gnis:county_id": "030",
    "gnis:created": "01/01/2000",
    "gnis:feature_id": "1993460",
    "gnis:state_id": "78",
    "name": "Fortuna Bay Beach",
    "natural": "beach"
  }
},
{
  "type": "node",
  "id": 356559428,
  "lat": 18.3649532,
  "lon": -64.7434705,
  "tags": {
    "ele": "7",
    "gnis:county_id": "020",
    "gnis:created": "01/01/2000",
    "gnis:feature_id": "1993463",
    "gnis:state_id": "78",
    "name": "Francis Bay Beach",
    "natural": "beach"
  }
},
{
  "type": "node",
  "id": 356559435,
  "lat": 17.7458070,
  "lon": -64.6023614,
  "tags": {
    "ele": "5",
    "gnis:county_id": "010",
    "gnis:created": "01/01/2000",
    "gnis:feature_id": "1993480",
    "gnis:state_id": "78",
    "name": "Grapetree Beach",
    "natural": "beach"
  }
},
{
  "type": "node",
  "id": 356559436,
  "lat": 17.7341405,
  "lon": -64.6115286,
  "tags": {
    "ele": "2",
    "gnis:county_id": "010",
    "gnis:created": "01/01/2000",
    "gnis:feature_id": "1993481",
    "gnis:state_id": "78",
    "name": "Grassy Point Beach",
    "natural": "beach"
  }
},
{
  "type": "node",
  "id": 356559437,
  "lat": 18.3424543,
  "lon": -64.6754134,
  "tags": {
    "ele": "0",
    "gnis:county_id": "020",
    "gnis:created": "01/01/2000",
    "gnis:feature_id": "1993486",
    "gnis:state_id": "78",
    "name": "Hansen Bay Beach",
    "natural": "beach"
  }
},
{
  "type": "node",
  "id": 356559438,
  "lat": 18.3138436,
  "lon": -64.7809714,
  "tags": {
    "ele": "3",
    "gnis:county_id": "020",
    "gnis:created": "01/01/2000",
    "gnis:feature_id": "1993487",
    "gnis:state_id": "78",
    "name": "Hart Bay Beach",
    "natural": "beach"
  }
},
{
  "type": "node",
  "id": 356559440,
  "lat": 18.3482875,
  "lon": -64.6793024,
  "tags": {
    "ele": "7",
    "gnis:county_id": "020",
    "gnis:created": "01/01/2000",
    "gnis:feature_id": "1993490",
    "gnis:state_id": "78",
    "name": "Haulover Beach",
    "natural": "beach"
  }
},
{
  "type": "node",
  "id": 356559442,
  "lat": 18.3170857,
  "lon": -64.9565575,
  "tags": {
    "ele": "12",
    "gnis:county_id": "030",
    "gnis:created": "01/01/2000",
    "gnis:feature_id": "1993494",
    "gnis:state_id": "78",
    "name": "Honeymoon Beach",
    "natural": "beach"
  }
},
{
  "type": "node",
  "id": 356559446,
  "lat": 17.7749715,
  "lon": -64.7423650,
  "tags": {
    "ele": "2",
    "gnis:county_id": "010",
    "gnis:created": "01/01/2000",
    "gnis:feature_id": "1993527",
    "gnis:state_id": "78",
    "name": "Judiths Fancy Beach",
    "natural": "beach"
  }
},
{
  "type": "node",
  "id": 356559450,
  "lat": 17.7216409,
  "lon": -64.8851464,
  "tags": {
    "ele": "3",
    "gnis:county_id": "010",
    "gnis:created": "01/01/2000",
    "gnis:feature_id": "1993533",
    "gnis:state_id": "78",
    "name": "LaGrange Beach",
    "natural": "beach"
  }
},
{
  "type": "node",
  "id": 356559453,
  "lat": 18.3168994,
  "lon": -64.9131992,
  "tags": {
    "ele": "4",
    "gnis:county_id": "030",
    "gnis:created": "01/01/2000",
    "gnis:feature_id": "1993543",
    "gnis:state_id": "78",
    "name": "Limetree Beach",
    "natural": "beach"
  }
},
{
  "type": "node",
  "id": 356559454,
  "lat": 18.3538425,
  "lon": -64.7556930,
  "tags": {
    "ele": "3",
    "gnis:county_id": "020",
    "gnis:created": "01/01/2000",
    "gnis:feature_id": "1993550",
    "gnis:state_id": "78",
    "name": "Little Cinnamon Bay Beach",
    "natural": "beach",
    "surface": "sand"
  }
},
{
  "type": "node",
  "id": 356559455,
  "lat": 18.3216214,
  "lon": -64.7509704,
  "tags": {
    "ele": "11",
    "gnis:county_id": "020",
    "gnis:created": "01/01/2000",
    "gnis:feature_id": "1993552",
    "gnis:state_id": "78",
    "name": "Little Reef Bay Beach",
    "natural": "beach"
  }
},
{
  "type": "node",
  "id": 356559456,
  "lat": 18.3368990,
  "lon": -64.6743022,
  "tags": {
    "ele": "7",
    "gnis:county_id": "020",
    "gnis:created": "01/01/2000",
    "gnis:feature_id": "1993554",
    "gnis:state_id": "78",
    "name": "Long Bay Beach",
    "natural": "beach"
  }
},
{
  "type": "node",
  "id": 356559457,
  "lat": 18.3607875,
  "lon": -64.8970870,
  "tags": {
    "ele": "1",
    "gnis:county_id": "030",
    "gnis:created": "01/01/2000",
    "gnis:feature_id": "1993560",
    "gnis:state_id": "78",
    "name": "Mandahl Bay Beach",
    "natural": "beach"
  }
},
{
  "type": "node",
  "id": 356559466,
  "lat": 18.3199679,
  "lon": -64.9194018,
  "tags": {
    "ele": "0",
    "gnis:county_id": "030",
    "gnis:created": "01/01/2000",
    "gnis:feature_id": "1993583",
    "gnis:state_id": "78",
    "name": "Morningstar Beach",
    "natural": "beach"
  }
},
{
  "type": "node",
  "id": 356559472,
  "lat": 18.3235656,
  "lon": -64.8443070,
  "tags": {
    "ele": "3",
    "gnis:county_id": "030",
    "gnis:created": "01/01/2000",
    "gnis:feature_id": "1993590",
    "gnis:state_id": "78",
    "name": "Muller Bay Beach",
    "natural": "beach"
  }
},
{
  "type": "node",
  "id": 356559476,
  "lat": 18.3530092,
  "lon": -64.7765269,
  "tags": {
    "ele": "6",
    "gnis:county_id": "020",
    "gnis:created": "01/01/2000",
    "gnis:feature_id": "1993603",
    "gnis:state_id": "78",
    "name": "Oppenheimer Beach",
    "natural": "beach"
  }
},
{
  "type": "node",
  "id": 356559477,
  "lat": 18.3366209,
  "lon": -64.8518072,
  "tags": {
    "ele": "5",
    "gnis:county_id": "030",
    "gnis:created": "01/01/2000",
    "gnis:feature_id": "1993610",
    "gnis:state_id": "78",
    "name": "Pelican Beach",
    "natural": "beach"
  }
},
{
  "type": "node",
  "id": 356559478,
  "lat": 17.7658054,
  "lon": -64.7351429,
  "tags": {
    "ele": "1",
    "gnis:county_id": "010",
    "gnis:created": "01/01/2000",
    "gnis:feature_id": "1993611",
    "gnis:state_id": "78",
    "name": "Pelican Cove Beach",
    "natural": "beach"
  }
},
{
  "type": "node",
  "id": 356559479,
  "lat": 18.3524536,
  "lon": -64.7609709,
  "tags": {
    "ele": "15",
    "gnis:county_id": "020",
    "gnis:created": "01/01/2000",
    "gnis:feature_id": "1993613",
    "gnis:state_id": "78",
    "name": "Peter Bay Beach",
    "natural": "beach"
  }
},
{
  "type": "node",
  "id": 356559483,
  "lat": 17.7619175,
  "lon": -64.6518078,
  "tags": {
    "ele": "2",
    "gnis:county_id": "010",
    "gnis:created": "01/01/2000",
    "gnis:feature_id": "1993625",
    "gnis:state_id": "78",
    "name": "Prune Beach",
    "natural": "beach"
  }
},
{
  "type": "node",
  "id": 356559485,
  "lat": 17.7344182,
  "lon": -64.8893129,
  "tags": {
    "ele": "3",
    "gnis:county_id": "010",
    "gnis:created": "01/01/2000",
    "gnis:feature_id": "1993628",
    "gnis:state_id": "78",
    "name": "Rainbow Beach",
    "natural": "beach"
  }
},
{
  "type": "node",
  "id": 356559487,
  "lat": 17.7546183,
  "lon": -64.6032151,
  "tags": {
    "ele": "3",
    "gnis:county_id": "010",
    "gnis:created": "01/01/2000",
    "gnis:feature_id": "1993633",
    "gnis:state_id": "78",
    "name": "Reef Beach",
    "natural": "beach"
  }
},
{
  "type": "node",
  "id": 356559489,
  "lat": 17.7191410,
  "lon": -64.8843130,
  "tags": {
    "ele": "3",
    "gnis:county_id": "010",
    "gnis:created": "01/01/2000",
    "gnis:feature_id": "1993641",
    "gnis:state_id": "78",
    "name": "Saint Croix Country Club Beach",
    "natural": "beach"
  }
},
{
  "type": "node",
  "id": 356559492,
  "lat": 18.3085667,
  "lon": -64.7051360,
  "tags": {
    "ele": "4",
    "gnis:county_id": "020",
    "gnis:created": "01/01/2000",
    "gnis:feature_id": "1993646",
    "gnis:state_id": "78",
    "name": "Salt Pond Beach",
    "natural": "beach"
  }
},
{
  "type": "node",
  "id": 356559493,
  "lat": 17.7810825,
  "lon": -64.7612543,
  "tags": {
    "ele": "0",
    "gnis:county_id": "010",
    "gnis:created": "01/01/2000",
    "gnis:feature_id": "1993647",
    "gnis:state_id": "78",
    "name": "Salt River Beach",
    "natural": "beach"
  }
},
{
  "type": "node",
  "id": 356559495,
  "lat": 17.6769206,
  "lon": -64.9018135,
  "tags": {
    "ele": "3",
    "gnis:county_id": "010",
    "gnis:created": "01/01/2000",
    "gnis:feature_id": "1993651",
    "gnis:state_id": "78",
    "name": "Sandy Point Beach",
    "natural": "beach"
  }
},
{
  "type": "node",
  "id": 356559496,
  "lat": 18.3344010,
  "lon": -64.9487574,
  "tags": {
    "ele": "12",
    "gnis:county_id": "030",
    "gnis:created": "01/01/2000",
    "gnis:feature_id": "1993652",
    "gnis:state_id": "78",
    "name": "Sapphire Beach",
    "natural": "beach"
  }
},
{
  "type": "node",
  "id": 356559499,
  "lat": 18.3160657,
  "lon": -64.8643079,
  "tags": {
    "ele": "3",
    "gnis:county_id": "030",
    "gnis:created": "01/01/2000",
    "gnis:feature_id": "1993654",
    "gnis:state_id": "78",
    "name": "Scott Beach",
    "natural": "beach"
  }
},
{
  "type": "node",
  "id": 356559503,
  "lat": 17.7066411,
  "lon": -64.6806985,
  "tags": {
    "ele": "0",
    "gnis:county_id": "010",
    "gnis:created": "01/01/2000",
    "gnis:feature_id": "1993662",
    "gnis:state_id": "78",
    "name": "Sonofa Beach",
    "natural": "beach"
  }
},
{
  "type": "node",
  "id": 356559504,
  "lat": 18.3635665,
  "lon": -65.0062590,
  "tags": {
    "ele": "13",
    "gnis:county_id": "030",
    "gnis:created": "01/01/2000",
    "gnis:feature_id": "1993666",
    "gnis:state_id": "78",
    "name": "Stumpy Bay Beach",
    "natural": "beach"
  }
},
{
  "type": "node",
  "id": 356559505,
  "lat": 17.7530283,
  "lon": -64.7165314,
  "tags": {
    "ele": "0",
    "gnis:county_id": "010",
    "gnis:created": "01/01/2000",
    "gnis:feature_id": "1993667",
    "gnis:state_id": "78",
    "name": "Sugar Beach",
    "natural": "beach"
  }
},
{
  "type": "node",
  "id": 356559506,
  "lat": 18.3127333,
  "lon": -64.9604239,
  "tags": {
    "ele": "7",
    "gnis:county_id": "030",
    "gnis:created": "01/01/2000",
    "gnis:feature_id": "1993668",
    "gnis:state_id": "78",
    "name": "Sugarbird Beach",
    "natural": "beach"
  }
},
{
  "type": "node",
  "id": 356559508,
  "lat": 17.7610841,
  "lon": -64.6670858,
  "tags": {
    "ele": "3",
    "gnis:county_id": "010",
    "gnis:created": "01/01/2000",
    "gnis:feature_id": "1993673",
    "gnis:state_id": "78",
    "name": "Tamarind Reef Beach",
    "natural": "beach"
  }
},
{
  "type": "node",
  "id": 356559511,
  "lat": 18.3207878,
  "lon": -64.8418069,
  "tags": {
    "ele": "13",
    "gnis:county_id": "030",
    "gnis:created": "01/01/2000",
    "gnis:feature_id": "1993680",
    "gnis:state_id": "78",
    "name": "Turquoise Beach",
    "natural": "beach"
  }
},
{
  "type": "node",
  "id": 356559512,
  "lat": 18.3546764,
  "lon": -64.8895867,
  "tags": {
    "ele": "1",
    "gnis:county_id": "030",
    "gnis:created": "01/01/2000",
    "gnis:feature_id": "1993681",
    "gnis:state_id": "78",
    "name": "Tutu Beach",
    "natural": "beach"
  }
},
{
  "type": "node",
  "id": 356559514,
  "lat": 18.3668977,
  "lon": -64.7229144,
  "tags": {
    "ele": "6",
    "gnis:county_id": "020",
    "gnis:created": "01/01/2000",
    "gnis:feature_id": "1993697",
    "gnis:state_id": "78",
    "name": "Water Lemon Cay Beach",
    "natural": "beach"
  }
},
{
  "type": "node",
  "id": 356559515,
  "lat": 17.7888616,
  "lon": -64.6279177,
  "tags": {
    "ele": "4",
    "gnis:county_id": "010",
    "gnis:created": "01/01/2000",
    "gnis:feature_id": "1993700",
    "gnis:state_id": "78",
    "name": "West Beach",
    "natural": "beach"
  }
},
{
  "type": "node",
  "id": 356559525,
  "lat": 18.3246767,
  "lon": -64.8384735,
  "tags": {
    "ele": "8",
    "gnis:county_id": "030",
    "gnis:created": "01/01/2000",
    "gnis:feature_id": "1993747",
    "gnis:state_id": "78",
    "name": "Bluebeard Beach",
    "natural": "beach"
  }
},
{
  "type": "node",
  "id": 356559526,
  "lat": 18.3168992,
  "lon": -64.7748601,
  "tags": {
    "ele": "5",
    "gnis:county_id": "020",
    "gnis:created": "01/01/2000",
    "gnis:feature_id": "1993748",
    "gnis:state_id": "78",
    "name": "Boatman Point Beach",
    "natural": "beach"
  }
},
{
  "type": "node",
  "id": 356559534,
  "lat": 17.7574725,
  "lon": -64.7237539,
  "tags": {
    "ele": "2",
    "gnis:county_id": "010",
    "gnis:created": "01/01/2000",
    "gnis:feature_id": "1993769",
    "gnis:state_id": "78",
    "name": "Cathys Fancy Beach",
    "natural": "beach"
  }
},
{
  "type": "node",
  "id": 356559548,
  "lat": 18.3160660,
  "lon": -64.7668042,
  "tags": {
    "ele": "0",
    "gnis:county_id": "020",
    "gnis:created": "01/01/2000",
    "gnis:feature_id": "1993813",
    "gnis:state_id": "78",
    "name": "Ditleff Beach",
    "natural": "beach"
  }
},
{
  "type": "node",
  "id": 356559559,
  "lat": 17.7155301,
  "lon": -64.8840352,
  "tags": {
    "ele": "3",
    "gnis:county_id": "010",
    "gnis:created": "01/01/2000",
    "gnis:feature_id": "1993845",
    "gnis:state_id": "78",
    "name": "Frederiksted Beach",
    "natural": "beach"
  }
},
{
  "type": "node",
  "id": 356559564,
  "lat": 18.3474930,
  "lon": -64.7776556,
  "tags": {
    "ele": "5",
    "gnis:county_id": "020",
    "gnis:created": "01/01/2000",
    "gnis:feature_id": "1993853",
    "gnis:state_id": "78",
    "name": "Gibney's Hawksnest Beach",
    "natural": "beach"
  }
},
{
  "type": "node",
  "id": 356559568,
  "lat": 18.3462913,
  "lon": -64.7801232,
  "tags": {
    "ele": "17",
    "gnis:county_id": "020",
    "gnis:created": "01/01/2000",
    "gnis:feature_id": "1993862",
    "gnis:state_id": "78",
    "name": "Public Hawknest Beach",
    "natural": "beach"
  }
},
{
  "type": "node",
  "id": 356559570,
  "lat": 18.3405096,
  "lon": -64.7737491,
  "tags": {
    "ele": "206",
    "gnis:county_id": "020",
    "gnis:created": "01/01/2000",
    "gnis:feature_id": "1993864",
    "gnis:state_id": "78",
    "name": "Honeymoon Beach",
    "natural": "beach"
  }
},
{
  "type": "node",
  "id": 356559572,
  "lat": 17.7508069,
  "lon": -64.5718042,
  "tags": {
    "ele": "17",
    "gnis:county_id": "010",
    "gnis:created": "01/01/2000",
    "gnis:feature_id": "1993866",
    "gnis:state_id": "78",
    "name": "Isaacs Bay Beach",
    "natural": "beach"
  }
},
{
  "type": "node",
  "id": 356559575,
  "lat": 18.3168996,
  "lon": -64.7023582,
  "tags": {
    "ele": "5",
    "gnis:county_id": "020",
    "gnis:created": "01/01/2000",
    "gnis:feature_id": "1993869",
    "gnis:state_id": "78",
    "name": "Johns Folly Beach",
    "natural": "beach"
  }
},
{
  "type": "node",
  "id": 356559584,
  "lat": 18.3621756,
  "lon": -64.7440260,
  "tags": {
    "ele": "9",
    "gnis:county_id": "020",
    "gnis:created": "01/01/2000",
    "gnis:feature_id": "1993909",
    "gnis:state_id": "78",
    "name": "Little Maho Beach",
    "natural": "beach"
  }
},
{
  "type": "node",
  "id": 356559588,
  "lat": 18.3566202,
  "lon": -64.7484706,
  "tags": {
    "ele": "19",
    "gnis:county_id": "020",
    "gnis:created": "01/01/2000",
    "gnis:feature_id": "1993915",
    "gnis:state_id": "78",
    "name": "Maho Bay Beach",
    "natural": "beach"
  }
},
{
  "type": "node",
  "id": 356559594,
  "lat": 17.7624726,
  "lon": -64.8862572,
  "tags": {
    "ele": "3",
    "gnis:county_id": "010",
    "gnis:created": "01/01/2000",
    "gnis:feature_id": "1993924",
    "gnis:state_id": "78",
    "name": "Monks Bath Beach",
    "natural": "beach"
  }
},
{
  "type": "node",
  "id": 356559597,
  "lat": 17.7652504,
  "lon": -64.8245898,
  "tags": {
    "ele": "6",
    "gnis:county_id": "010",
    "gnis:created": "01/01/2000",
    "gnis:feature_id": "1993933",
    "gnis:state_id": "78",
    "name": "North Star Beach",
    "natural": "beach"
  }
},
{
  "type": "node",
  "id": 356559607,
  "lat": 18.3227336,
  "lon": -64.9429233,
  "tags": {
    "ele": "7",
    "gnis:county_id": "030",
    "gnis:created": "01/01/2000",
    "gnis:feature_id": "1993965",
    "gnis:state_id": "78",
    "name": "Revenge Beach",
    "natural": "beach"
  }
},